{"scenarioId":1,"title":"LojasAmericanas","text":"Barro Preto","location":{"longitude":-43.952023,"latitude":-19.921711},"userId":"2","type":"text","infobox":{"text":"Avenida Augusto de Lima n.º 1313 - Barro Preto , Belo Horizonte","title":"Barro Preto"}}{"scenarioId":2,"title":"LojasAmericanas","text":"Cidade Nova","location":{"longitude":-43.92919,"latitude":-19.888523},"userId":"2","type":"text","infobox":{"text":"Av. Cristiano Machado, 2.228 - Cidade Nova , Belo Horizonte","title":"Cidade Nova"}}{"scenarioId":3,"title":"LojasAmericanas","text":"Gutierrez","location":{"longitude":-43.956318,"latitude":-19.932753},"userId":"2","type":"text","infobox":{"text":"Rua André Cavalcanti, 214 - Gutierrez , Belo Horizonte","title":"Gutierrez"}}{"scenarioId":4,"title":"LojasAmericanas","text":"Mangabeiras","location":{"longitude":-43.919605,"latitude":-19.949198},"userId":"2","type":"text","infobox":{"text":"Praça da Bandeira, 50 - Mangabeira , Belo Horizonte","title":"Mangabeiras"}}{"scenarioId":5,"title":"LojasAmericanas","text":"Pampulha","location":{"longitude":-43.960445,"latitude":-19.857086},"userId":"2","type":"text","infobox":{"text":"Av. Presidente Antônio Carlos, 7.585 - São Luíz , Belo Horizonte","title":"Pampulha"}}{"scenarioId":6,"title":"LojasAmericanas","text":"Savassi","location":{"longitude":-43.930607,"latitude":-19.93496},"userId":"2","type":"text","infobox":{"text":"Rua Professor Moraes, 206 - Funcionários , Belo Horizonte","title":"Savassi"}}{"scenarioId":7,"title":"LojasAmericanas","text":"Floresta","location":{"longitude":-43.930885,"latitude":-19.913092},"userId":"2","type":"text","infobox":{"text":"Av. Contorno nº 1413 - Floresta , Belo Horizonte","title":"Floresta"}}{"scenarioId":8,"title":"LojasAmericanas","text":"Shopping Paragem","location":{"longitude":-43.930885,"latitude":-19.913092},"userId":"2","type":"text","infobox":{"text":"Avenida Professor Mário Werneck n.º 1360 Loja no 2º piso \u0096 LUC 319 - Estoril , Belo Horizonte","title":"Shopping Paragem"}}{"scenarioId":9,"title":"LojasAmericanas","text":"Silva Lobo","location":{"longitude":-43.938576,"latitude":-19.919067},"userId":"2","type":"text","infobox":{"text":"Avenida Silva Lobo n.º 1210 - Nova Granadá , Belo Horizonte","title":"Silva Lobo"}}{"scenarioId":10,"title":"LojasAmericanas","text":"Alípio de Melo","location":{"longitude":-44.00325,"latitude":-19.892962},"userId":"2","type":"text","infobox":{"text":"Avenida Abílio Machado n.º 1664 - Alípio de Melo , Belo Horizonte","title":"Alípio de Melo"}}{"scenarioId":11,"title":"LojasAmericanas","text":"Belo Horizonte","location":{"longitude":-43.939934,"latitude":-19.917967},"userId":"2","type":"text","infobox":{"text":"Rua São Paulo, 504 - Centro , Belo Horizonte","title":"Belo Horizonte"}}{"scenarioId":12,"title":"LojasAmericanas","text":"Bless Center","location":{"longitude":-43.955597,"latitude":-19.818384},"userId":"2","type":"text","infobox":{"text":"Avenida Vilarinho n.º 1167 Ljs. 2, 3 e estacionamento - Venda Nova , Belo Horizonte","title":"Bless Center"}}{"scenarioId":13,"title":"LojasAmericanas","text":"BH Shopping Rodovia","location":{"longitude":-43.938576,"latitude":-19.919067},"userId":"2","type":"text","infobox":{"text":"BR 040 Km 447 - Trevo Nova Lima - Belverde , Belo Horizonte","title":"BH Shopping Rodovia"}}{"scenarioId":14,"title":"LojasAmericanas","text":"Minas Shopping","location":{"longitude":-43.928017,"latitude":-19.87593},"userId":"2","type":"text","infobox":{"text":"Av Cristiano Machado 4000 - Bairro São Paulo , Belo Horizonte","title":"Minas Shopping"}}{"scenarioId":15,"title":"LojasAmericanas","text":"ViaShopping Pampulha","location":{"longitude":-43.960365,"latitude":-19.835712},"userId":"2","type":"text","infobox":{"text":"Av. Dom Pedro I, n.º 402, Lojas S200 e S201 - Itapoã , Belo Horizonte","title":"ViaShopping Pampulha"}}{"scenarioId":16,"title":"LojasAmericanas","text":"Sh. Pátio Savassi","location":{"longitude":-43.960365,"latitude":-19.835712},"userId":"2","type":"text","infobox":{"text":"Avenida do Contorno, n.º 6061 - lojas 115 a 119 - São Pedro , Belo Horizonte","title":"Sh. Pátio Savassi"}}{"scenarioId":17,"title":"LojasAmericanas","text":"Shopping Cidade","location":{"longitude":-43.939957,"latitude":-19.921501},"userId":"2","type":"text","infobox":{"text":"Rua Tupis, 317\/337 - Centro , Belo Horizonte","title":"Shopping Cidade"}}{"scenarioId":18,"title":"LojasAmericanas","text":"Shopping Del Rey","location":{"longitude":-43.97435,"latitude":-19.884031},"userId":"2","type":"text","infobox":{"text":"Av. Presidente Carlos Luz, 3001 - Caiçara , Belo Horizonte","title":"Shopping Del Rey"}}{"scenarioId":19,"title":"LojasAmericanas","text":"Shopping Estação BH","location":{"longitude":-43.97435,"latitude":-19.884031},"userId":"2","type":"text","infobox":{"text":"Avenida Cristiano Machado nº 11833 LUC 317 \/ 318 \u0096 Piso 3º , Belo Horizonte","title":"Shopping Estação BH"}}{"scenarioId":20,"title":"LojasAmericanas","text":"Uai Shopping","location":{"longitude":-43.9401,"latitude":-19.918339},"userId":"2","type":"text","infobox":{"text":"Rua Saturnino de Brito n°17 - Loja Âncora 01 (piso térreo e mezanino) - Centro , Belo Horizonte","title":"Uai Shopping"}}{"scenarioId":21,"title":"LojasAmericanas","text":"Viashopping Barreiro","location":{"longitude":-44.01277,"latitude":-19.974579},"userId":"2","type":"text","infobox":{"text":"Av. Afonso Vaz de Melo n.º 640 Ljs nºs. 246 a 250 | Piso Verão - Barreiro de Baixo , Belo Horizonte","title":"Viashopping Barreiro"}}{"scenarioId":22,"title":"LojasAmericanas","text":"Independência","location":{"longitude":-43.938576,"latitude":-19.919067},"userId":"2","type":"text","infobox":{"text":"Avenida Independência, 1840 - Jardim Paineiras , Belo Horizonte","title":"Independência"}}{"scenarioId":23,"title":"LojasAmericanas","text":"Araguari","location":{"longitude":-43.938576,"latitude":-19.919067},"userId":"2","type":"text","infobox":{"text":"Rua Marciano Santos n.º 353 e 373 , Belo Horizonte","title":"Araguari"}}{"scenarioId":24,"title":"LojasAmericanas","text":"Araxá","location":{"longitude":-43.9401,"latitude":-19.918339},"userId":"2","type":"text","infobox":{"text":"Avenida Presidente Olegário Maciel n.º 567 - Centro , Belo Horizonte","title":"Araxá"}}{"scenarioId":25,"title":"LojasAmericanas","text":"Barbacena","location":{"longitude":-43.933918,"latitude":-19.91681},"userId":"2","type":"text","infobox":{"text":"Praça dos Andradas nº 177 - Centro , Belo Horizonte","title":"Barbacena"}}{"scenarioId":26,"title":"LojasAmericanas","text":"Betim Shopping","location":{"longitude":-43.938576,"latitude":-19.919067},"userId":"2","type":"text","infobox":{"text":"Av. Edméia Mattos Lazarotti, 1655 - Angola , Belo Horizonte","title":"Betim Shopping"}}{"scenarioId":27,"title":"LojasAmericanas","text":"Cataguases","location":{"longitude":-43.938576,"latitude":-19.919067},"userId":"2","type":"text","infobox":{"text":"Praça Governador Valadares n.º 65 - Centro , Belo Horizonte","title":"Cataguases"}}{"scenarioId":28,"title":"LojasAmericanas","text":"Contagem","location":{"longitude":-43.938576,"latitude":-19.919067},"userId":"2","type":"text","infobox":{"text":"Rua Tiradentes n.º 2629 - Bairro Industrial , Belo Horizonte","title":"Contagem"}}{"scenarioId":29,"title":"LojasAmericanas","text":"BIG Shopping","location":{"longitude":-44.038147,"latitude":-19.94312},"userId":"2","type":"text","infobox":{"text":"Av João César de Oliveira, 1275 - Eldorado , Belo Horizonte","title":"BIG Shopping"}}{"scenarioId":30,"title":"LojasAmericanas","text":"Itaú Power Center","location":{"longitude":-44.02354,"latitude":-19.948187},"userId":"2","type":"text","infobox":{"text":"Avenida General David Sarnoff nº 5160 Loja 237 - Contagem , Belo Horizonte","title":"Itaú Power Center"}}{"scenarioId":31,"title":"LojasAmericanas","text":"Divinópolis","location":{"longitude":-43.9401,"latitude":-19.918339},"userId":"2","type":"text","infobox":{"text":"Avenida 1º de Junho n.º 454 - Centro , Belo Horizonte","title":"Divinópolis"}}{"scenarioId":32,"title":"LojasAmericanas","text":"Terra Parque Shopping","location":{"longitude":-43.9401,"latitude":-19.918339},"userId":"2","type":"text","infobox":{"text":"Rua Moacir José Leite n.º 100 Lojas n.ºs A\/182\/183\/184\/Expansão 4, Piso Térreo - Santa Clara , Belo Horizonte","title":"Terra Parque Shopping"}}{"scenarioId":33,"title":"LojasAmericanas","text":"Governador Valadares","location":{"longitude":-43.9401,"latitude":-19.918339},"userId":"2","type":"text","infobox":{"text":"Av. Minas Gerais n.º 471 e Rua Bárbara Heliodora n.º 469 - Centro , Belo Horizonte","title":"Governador Valadares"}}{"scenarioId":34,"title":"LojasAmericanas","text":"GV Shopping","location":{"longitude":-43.904324,"latitude":-19.90586},"userId":"2","type":"text","infobox":{"text":"Rua Sete de Setembro n.º 1213, Loja Âncora E - Esplanada , Belo Horizonte","title":"GV Shopping"}}{"scenarioId":35,"title":"LojasAmericanas","text":"Shopping do Vale do Aço","location":{"longitude":-43.938576,"latitude":-19.919067},"userId":"2","type":"text","infobox":{"text":"Av. Pedro Linhares Gomes, n.º 3900 LUC 88 - Industrial , Belo Horizonte","title":"Shopping do Vale do Aço"}}{"scenarioId":36,"title":"LojasAmericanas","text":"Baduy Mall","location":{"longitude":-43.9401,"latitude":-19.918339},"userId":"2","type":"text","infobox":{"text":"Rua Vinte e Seis n.º 875 parte - Centro , Belo Horizonte","title":"Baduy Mall"}}{"scenarioId":37,"title":"LojasAmericanas","text":"Alameda Mall","location":{"longitude":-43.938576,"latitude":-19.919067},"userId":"2","type":"text","infobox":{"text":"Rua Moraes Castro, n.º 300 - Loja 220 - Alto dos Passos , Belo Horizonte","title":"Alameda Mall"}}{"scenarioId":38,"title":"LojasAmericanas","text":"Batista de Oliveira","location":{"longitude":-43.913338,"latitude":-19.930567},"userId":"2","type":"text","infobox":{"text":"Rua Batista de Oliveira, 381 - Centro , Belo Horizonte","title":"Batista de Oliveira"}}{"scenarioId":39,"title":"LojasAmericanas","text":"Independência Shopping","location":{"longitude":-43.913338,"latitude":-19.930567},"userId":"2","type":"text","infobox":{"text":"Avenida Independência n.º 3600 - São Mateus , Belo Horizonte","title":"Independência Shopping"}}{"scenarioId":40,"title":"LojasAmericanas","text":"Juiz de Fora","location":{"longitude":-43.913338,"latitude":-19.930567},"userId":"2","type":"text","infobox":{"text":"Avenida Rui Barbosa nº s. 468; 470 e 474 - Santa Terezinha , Belo Horizonte","title":"Juiz de Fora"}}{"scenarioId":41,"title":"LojasAmericanas","text":"Juíz de Fora","location":{"longitude":-43.913338,"latitude":-19.930567},"userId":"2","type":"text","infobox":{"text":"Rua Halfeld, 668 - Centro , Belo Horizonte","title":"Juíz de Fora"}}{"scenarioId":42,"title":"LojasAmericanas","text":"Montes Claros Shopping Center","location":{"longitude":-43.870914,"latitude":-16.74017},"userId":"2","type":"text","infobox":{"text":"Av. Donato Quintino, nº 90 - Canelas , Belo Horizonte","title":"Montes Claros Shopping Center"}}{"scenarioId":43,"title":"LojasAmericanas","text":"Muriaé","location":{"longitude":-43.9401,"latitude":-19.918339},"userId":"2","type":"text","infobox":{"text":"Rua Dr. Alves Pequeno nº 234 - Centro , Belo Horizonte","title":"Muriaé"}}{"scenarioId":44,"title":"LojasAmericanas","text":"Paracatu","location":{"longitude":-43.9401,"latitude":-19.918339},"userId":"2","type":"text","infobox":{"text":"Rua Joaquim Murtinho n.º 134 - Centro , Belo Horizonte","title":"Paracatu"}}{"scenarioId":45,"title":"LojasAmericanas","text":"Passos","location":{"longitude":-43.9401,"latitude":-19.918339},"userId":"2","type":"text","infobox":{"text":"Rua Presidente Antônio Carlos n.° 146 - Centro , Belo Horizonte","title":"Passos"}}{"scenarioId":46,"title":"LojasAmericanas","text":"Pátio Central Shopping","location":{"longitude":-43.9401,"latitude":-19.918339},"userId":"2","type":"text","infobox":{"text":"Praça Alexina Cândida Conceição n.º 05 - Centro , Belo Horizonte","title":"Pátio Central Shopping"}}{"scenarioId":47,"title":"LojasAmericanas","text":"Shopping Minas Sul","location":{"longitude":-43.938576,"latitude":-19.919067},"userId":"2","type":"text","infobox":{"text":"Av Silvio Monteiro Santos, 180 - Vila Olímpica , Belo Horizonte","title":"Shopping Minas Sul"}}{"scenarioId":48,"title":"LojasAmericanas","text":"Pouso Alegre","location":{"longitude":-43.9401,"latitude":-19.918339},"userId":"2","type":"text","infobox":{"text":"Praça Dr. Garcia Coutinho, 72 - Centro , Belo Horizonte","title":"Pouso Alegre"}}{"scenarioId":49,"title":"LojasAmericanas","text":"Ribeirão das Neves","location":{"longitude":-43.9401,"latitude":-19.918339},"userId":"2","type":"text","infobox":{"text":"Avenida dos Nogueiras n.º 49 - Centro , Belo Horizonte","title":"Ribeirão das Neves"}}{"scenarioId":50,"title":"LojasAmericanas","text":"Sabará","location":{"longitude":-43.89955,"latitude":-19.888517},"userId":"2","type":"text","infobox":{"text":"Avenida Contagem n.º 1322 - Vila Nova Vista , Belo Horizonte","title":"Sabará"}}{"scenarioId":51,"title":"LojasAmericanas","text":"Santa Luzia","location":{"longitude":-43.922974,"latitude":-19.787909},"userId":"2","type":"text","infobox":{"text":"R. Pará nº 2222 - São Benedito , Belo Horizonte","title":"Santa Luzia"}}{"scenarioId":52,"title":"LojasAmericanas","text":"Teófilo Otoni","location":{"longitude":-43.922974,"latitude":-19.787909},"userId":"2","type":"text","infobox":{"text":"Rua Epaminondas Otoni n.º 813, antigo 336 - Lote 041 \u0096 Quadra 22- Setor 06 - Centro , Belo Horizonte","title":"Teófilo Otoni"}}{"scenarioId":53,"title":"LojasAmericanas","text":"Shopping Center Uberaba","location":{"longitude":-43.922974,"latitude":-19.787909},"userId":"2","type":"text","infobox":{"text":"Avenida Santa Beatriz da Silva n.º 1501 , SUC N.º 423, piso térreo - Santa Maria , Belo Horizonte","title":"Shopping Center Uberaba"}}{"scenarioId":54,"title":"LojasAmericanas","text":"Loja do Centro de Distribuição de Minas Gerais","location":{"longitude":-43.922974,"latitude":-19.787909},"userId":"2","type":"text","infobox":{"text":", Belo Horizonte","title":"Loja do Centro de Distribuição de Minas Gerais"}}{"scenarioId":55,"title":"LojasAmericanas","text":"Center Shopping Uberlândia","location":{"longitude":-48.26242,"latitude":-18.911255},"userId":"2","type":"text","infobox":{"text":"Avenida João Naves de Ávila nº 1331 - Santa Mônica , Belo Horizonte","title":"Center Shopping Uberlândia"}}{"scenarioId":56,"title":"LojasAmericanas","text":"Luizote de Freitas","location":{"longitude":-43.938576,"latitude":-19.919067},"userId":"2","type":"text","infobox":{"text":"Avenida José Fonseca e Silva n.º 1930 , Belo Horizonte","title":"Luizote de Freitas"}}{"scenarioId":57,"title":"LojasAmericanas","text":"Uberlândia","location":{"longitude":-43.9401,"latitude":-19.918339},"userId":"2","type":"text","infobox":{"text":"Praça Tubal Vilela, 252 - Centro , Belo Horizonte","title":"Uberlândia"}}{"scenarioId":58,"title":"LojasAmericanas","text":"Ary Franco","location":{"longitude":-43.466667,"latitude":-22.883333},"userId":"2","type":"text","infobox":{"text":"Avenida Ministro Ari Franco n.º 77 - Bangu , Rio de Janeiro","title":"Ary Franco"}}{"scenarioId":59,"title":"LojasAmericanas","text":"Avenida Ayrton Senna","location":{"longitude":-43.366028,"latitude":-22.980038},"userId":"2","type":"text","infobox":{"text":"Av. Ayrton Senna 3419 - Barra da Tijuca , Rio de Janeiro","title":"Avenida Ayrton Senna"}}{"scenarioId":60,"title":"LojasAmericanas","text":"Bangu","location":{"longitude":-43.46555,"latitude":-22.879608},"userId":"2","type":"text","infobox":{"text":"Rua Francisco Real, 2050 - Bangu , Rio de Janeiro","title":"Bangu"}}{"scenarioId":61,"title":"LojasAmericanas","text":"Barra","location":{"longitude":-43.328197,"latitude":-23.001202},"userId":"2","type":"text","infobox":{"text":"Av. das Américas, 1.510 Lj C - Barra da Tijuca , Rio de Janeiro","title":"Barra"}}{"scenarioId":62,"title":"LojasAmericanas","text":"Botafogo","location":{"longitude":-43.19734,"latitude":-22.955942},"userId":"2","type":"text","infobox":{"text":"Rua Voluntários da Pátria, 450 Lj B - Humaitá , Rio de Janeiro","title":"Botafogo"}}{"scenarioId":63,"title":"LojasAmericanas","text":"Centro Comercial Recreio","location":{"longitude":-43.449116,"latitude":-23.010067},"userId":"2","type":"text","infobox":{"text":"Av. das Américas nº 13651 - Recreio dos Bandeirantes , Rio de Janeiro","title":"Centro Comercial Recreio"}}{"scenarioId":64,"title":"LojasAmericanas","text":"Conde de Bonfim","location":{"longitude":-43.225937,"latitude":-22.924938},"userId":"2","type":"text","infobox":{"text":"Rua Conde de Bonfim, 152 - Loja A - Tijuca , Rio de Janeiro","title":"Conde de Bonfim"}}{"scenarioId":65,"title":"LojasAmericanas","text":"Copacabana","location":{"longitude":-43.1807,"latitude":-22.967033},"userId":"2","type":"text","infobox":{"text":"Rua Raul Pompéia n.º 94 - Copacabana , Rio de Janeiro","title":"Copacabana"}}{"scenarioId":66,"title":"LojasAmericanas","text":"Copacabana","location":{"longitude":-43.1807,"latitude":-22.967033},"userId":"2","type":"text","infobox":{"text":"Av. Nossa Senhora de Copacabana nº.619 Loja (parte) - Copacabana , Rio de Janeiro","title":"Copacabana"}}{"scenarioId":67,"title":"LojasAmericanas","text":"Estação Botafogo","location":{"longitude":-43.18368,"latitude":-22.951132},"userId":"2","type":"text","infobox":{"text":"Rua Voluntários da Pátria, 54 Loja A e B - Botafogo , Rio de Janeiro","title":"Estação Botafogo"}}{"scenarioId":68,"title":"LojasAmericanas","text":"Flamengo","location":{"longitude":-43.17829,"latitude":-22.939018},"userId":"2","type":"text","infobox":{"text":"Rua Marques de Abrantes, 172 Bl FTE Lj A - Flamengo , Rio de Janeiro","title":"Flamengo"}}{"scenarioId":69,"title":"LojasAmericanas","text":"Freguesia","location":{"longitude":-43.342728,"latitude":-22.939426},"userId":"2","type":"text","infobox":{"text":"Estrada dos Três Rios nº 93 - Freguesia , Rio de Janeiro","title":"Freguesia"}}{"scenarioId":70,"title":"LojasAmericanas","text":"Gávea","location":{"longitude":-43.342728,"latitude":-22.939426},"userId":"2","type":"text","infobox":{"text":"Rua Marquês de São Vicente, 37 - Gávea , Rio de Janeiro","title":"Gávea"}}{"scenarioId":71,"title":"LojasAmericanas","text":"Ilha do Governador","location":{"longitude":-43.342728,"latitude":-22.939426},"userId":"2","type":"text","infobox":{"text":"Rua República Árabe da Síria, 383 - Portuguesa , Rio de Janeiro","title":"Ilha do Governador"}}{"scenarioId":72,"title":"LojasAmericanas","text":"Ipanema","location":{"longitude":-43.20453,"latitude":-22.98382},"userId":"2","type":"text","infobox":{"text":"Rua Visconde de Pirajá, 174 Lj A e B Parte - Ipanema , Rio de Janeiro","title":"Ipanema"}}{"scenarioId":73,"title":"LojasAmericanas","text":"Jardim Oceânico","location":{"longitude":-43.305122,"latitude":-23.013206},"userId":"2","type":"text","infobox":{"text":"Av. Olegário Maciel, 256 - Barra da Tijuca , Rio de Janeiro","title":"Jardim Oceânico"}}{"scenarioId":74,"title":"LojasAmericanas","text":"Leblon","location":{"longitude":-43.305122,"latitude":-23.013206},"userId":"2","type":"text","infobox":{"text":"Av. Ataulfo de Paiva n.º 204 Lojas \u0093A\u0094 e \u0093B\u0094 - Leblon , Rio de Janeiro","title":"Leblon"}}{"scenarioId":75,"title":"LojasAmericanas","text":"Leblon","location":{"longitude":-43.22216,"latitude":-22.98356},"userId":"2","type":"text","infobox":{"text":"Rua General Urquiza, 71 Lj A - Leblon , Rio de Janeiro","title":"Leblon"}}{"scenarioId":76,"title":"LojasAmericanas","text":"Loja da Sede","location":{"longitude":-43.209587,"latitude":-22.90354},"userId":"2","type":"text","infobox":{"text":", Rio de Janeiro","title":"Loja da Sede"}}{"scenarioId":77,"title":"LojasAmericanas","text":"Méier","location":{"longitude":-43.283333,"latitude":-22.9},"userId":"2","type":"text","infobox":{"text":"Rua Dias da Cruz, 637 a 641 e 647 (parte) - Méier , Rio de Janeiro","title":"Méier"}}{"scenarioId":78,"title":"LojasAmericanas","text":"Parque das Rosas","location":{"longitude":-43.365833,"latitude":-23.0},"userId":"2","type":"text","infobox":{"text":"Av. das Américas, 3.693 Bl 2 Lojas 102 e 103 - Barra da Tijuca , Rio de Janeiro","title":"Parque das Rosas"}}{"scenarioId":79,"title":"LojasAmericanas","text":"Posto 5","location":{"longitude":-43.19085,"latitude":-22.978382},"userId":"2","type":"text","infobox":{"text":"Av. Nossa Senhora de Copacabana, 1.058 Loja A - Copacabana , Rio de Janeiro","title":"Posto 5"}}{"scenarioId":80,"title":"LojasAmericanas","text":"Recreio","location":{"longitude":-43.456844,"latitude":-23.012241},"userId":"2","type":"text","infobox":{"text":"Av. das Américas, nº 14.755 - Recreio , Rio de Janeiro","title":"Recreio"}}{"scenarioId":81,"title":"LojasAmericanas","text":"Taquara","location":{"longitude":-43.388054,"latitude":-22.922222},"userId":"2","type":"text","infobox":{"text":"Estrada dos Bandeirantes, 106 Ljs A,B e C - Taquara , Rio de Janeiro","title":"Taquara"}}{"scenarioId":82,"title":"LojasAmericanas","text":"Tijuca","location":{"longitude":-43.388054,"latitude":-22.922222},"userId":"2","type":"text","infobox":{"text":"Rua Barão de Mesquita, 238 LJ B - Tijuca , Rio de Janeiro","title":"Tijuca"}}{"scenarioId":83,"title":"LojasAmericanas","text":"Uruguai","location":{"longitude":-43.388054,"latitude":-22.922222},"userId":"2","type":"text","infobox":{"text":"Rua Uruguai, 329 - Tijuca , Rio de Janeiro","title":"Uruguai"}}{"scenarioId":84,"title":"LojasAmericanas","text":"Vila Isabel","location":{"longitude":-43.25,"latitude":-22.916666},"userId":"2","type":"text","infobox":{"text":"Rua Maxwell, 477 (parte) - Vila Isabel , Rio de Janeiro","title":"Vila Isabel"}}{"scenarioId":85,"title":"LojasAmericanas","text":"Boulevard 28 de Setembro","location":{"longitude":-43.25,"latitude":-22.916666},"userId":"2","type":"text","infobox":{"text":"Boulevard Vinte e Oito de Setembro, n.º 86 \u0096 Loja E - térreo - Vila Isabel , Rio de Janeiro","title":"Boulevard 28 de Setembro"}}{"scenarioId":86,"title":"LojasAmericanas","text":"Catete","location":{"longitude":-43.179165,"latitude":-22.926111},"userId":"2","type":"text","infobox":{"text":"Rua do Catete n.º 261 - Catete , Rio de Janeiro","title":"Catete"}}{"scenarioId":87,"title":"LojasAmericanas","text":"Copacabana","location":{"longitude":-43.1782,"latitude":-22.966066},"userId":"2","type":"text","infobox":{"text":"Av. Nossa Senhora de Copacabana, 249 - Copacabana , Rio de Janeiro","title":"Copacabana"}}{"scenarioId":88,"title":"LojasAmericanas","text":"Cores da Lapa","location":{"longitude":-43.185432,"latitude":-22.914335},"userId":"2","type":"text","infobox":{"text":"Rua Riachuelo, 92 - Lapa , Rio de Janeiro","title":"Cores da Lapa"}}{"scenarioId":89,"title":"LojasAmericanas","text":"Galeão","location":{"longitude":-43.204533,"latitude":-22.803883},"userId":"2","type":"text","infobox":{"text":"Estrada do Galeão nº 2.420 - Loja A , Rio de Janeiro","title":"Galeão"}}{"scenarioId":90,"title":"LojasAmericanas","text":"Glória","location":{"longitude":-43.17361,"latitude":-22.920834},"userId":"2","type":"text","infobox":{"text":"Rua da Glória nºs 190 e 190 A - Glória , Rio de Janeiro","title":"Glória"}}{"scenarioId":91,"title":"LojasAmericanas","text":"Ipanema","location":{"longitude":-43.199295,"latitude":-22.984428},"userId":"2","type":"text","infobox":{"text":"Rua Visconde de Pirajá, 142\/146 - Ipanema , Rio de Janeiro","title":"Ipanema"}}{"scenarioId":92,"title":"LojasAmericanas","text":"Largo da Segunda-Feira","location":{"longitude":-43.222816,"latitude":-22.923138},"userId":"2","type":"text","infobox":{"text":"Rua Conde de Bonfim 42 - Tijuca , Rio de Janeiro","title":"Largo da Segunda-Feira"}}{"scenarioId":93,"title":"LojasAmericanas","text":"MapBand","location":{"longitude":-43.385803,"latitude":-22.95305},"userId":"2","type":"text","infobox":{"text":"Estrada dos Bandeirantes n.º 8591 - Curicica , Rio de Janeiro","title":"MapBand"}}{"scenarioId":94,"title":"LojasAmericanas","text":"Olegário Maciel","location":{"longitude":-43.385803,"latitude":-22.95305},"userId":"2","type":"text","infobox":{"text":"Rua Olegário Maciel, 365 - Barra da Tijuca , Rio de Janeiro","title":"Olegário Maciel"}}{"scenarioId":95,"title":"LojasAmericanas","text":"Ramos","location":{"longitude":-43.385803,"latitude":-22.95305},"userId":"2","type":"text","infobox":{"text":"Rua Uranos nºs 1033 \/ 1035 - Ramos , Rio de Janeiro","title":"Ramos"}}{"scenarioId":96,"title":"LojasAmericanas","text":"Realengo","location":{"longitude":-43.385803,"latitude":-22.95305},"userId":"2","type":"text","infobox":{"text":"Rua Marechal Soares de Andréia nº 310 - Lojas A e B - Realengo , Rio de Janeiro","title":"Realengo"}}{"scenarioId":97,"title":"LojasAmericanas","text":"Relação","location":{"longitude":-43.385803,"latitude":-22.95305},"userId":"2","type":"text","infobox":{"text":"Rua da Relação n.º 33 e 35 - Centro , Rio de Janeiro","title":"Relação"}}{"scenarioId":98,"title":"LojasAmericanas","text":"Rio Design Barra","location":{"longitude":-43.385803,"latitude":-22.95305},"userId":"2","type":"text","infobox":{"text":"Av. das Américas, n.º 7777 \u0096 Loja 105 \u0096 1º Piso - Barra da Tijuca , Rio de Janeiro","title":"Rio Design Barra"}}{"scenarioId":99,"title":"LojasAmericanas","text":"Rua da Passagem","location":{"longitude":-43.19,"latitude":-22.95334},"userId":"2","type":"text","infobox":{"text":"Rua da Passagem nºs. 113 e 115 - Botafogo , Rio de Janeiro","title":"Rua da Passagem"}}{"scenarioId":100,"title":"LojasAmericanas","text":"Rua São Clemente","location":{"longitude":-43.187283,"latitude":-22.949615},"userId":"2","type":"text","infobox":{"text":"Rua São Clemente nº 159 - Botafogo , Rio de Janeiro","title":"Rua São Clemente"}}{"scenarioId":101,"title":"LojasAmericanas","text":"Rua Visconde de Pirajá","location":{"longitude":-43.187283,"latitude":-22.949615},"userId":"2","type":"text","infobox":{"text":"Rua Visconde de Pirajá n.º 303 Loja \u0093D\u0094 e 309 \u0093A\u0094 - Ipanema , Rio de Janeiro","title":"Rua Visconde de Pirajá"}}{"scenarioId":102,"title":"LojasAmericanas","text":"Sacadura Cabral","location":{"longitude":-43.18544,"latitude":-22.897404},"userId":"2","type":"text","infobox":{"text":"Rua Sacadura Cabral nº 122 - Saúde , Rio de Janeiro","title":"Sacadura Cabral"}}{"scenarioId":103,"title":"LojasAmericanas","text":"Santa Cruz Shopping Center","location":{"longitude":-43.681473,"latitude":-22.920244},"userId":"2","type":"text","infobox":{"text":"Rua Felipe Cardoso, 540 - Santa Cruz , Rio de Janeiro","title":"Santa Cruz Shopping Center"}}{"scenarioId":104,"title":"LojasAmericanas","text":"São Cristóvão","location":{"longitude":-43.22638,"latitude":-22.899847},"userId":"2","type":"text","infobox":{"text":"Rua São Luis Gonzaga, 392 - São Cristovão , Rio de Janeiro","title":"São Cristóvão"}}{"scenarioId":105,"title":"LojasAmericanas","text":"Norte Shopping","location":{"longitude":-43.283638,"latitude":-22.887365},"userId":"2","type":"text","infobox":{"text":"Av, Dom Helder Câmara, 5332 - Cachambi , Rio de Janeiro","title":"Norte Shopping"}}{"scenarioId":106,"title":"LojasAmericanas","text":"Loja do Centro de Distribuição de Santa Cruz","location":{"longitude":-43.209587,"latitude":-22.90354},"userId":"2","type":"text","infobox":{"text":", Rio de Janeiro","title":"Loja do Centro de Distribuição de Santa Cruz"}}{"scenarioId":107,"title":"LojasAmericanas","text":"Barrashopping","location":{"longitude":-43.357834,"latitude":-22.999456},"userId":"2","type":"text","infobox":{"text":"Av. das Américas, 4666 - Barra da Tijuca , Rio de Janeiro","title":"Barrashopping"}}{"scenarioId":108,"title":"LojasAmericanas","text":"Laranjeiras","location":{"longitude":-43.357834,"latitude":-22.999456},"userId":"2","type":"text","infobox":{"text":"Rua das Laranjeiras, 49\/51 - Laranjeiras , Rio de Janeiro","title":"Laranjeiras"}}{"scenarioId":109,"title":"LojasAmericanas","text":"Shopping Bangu","location":{"longitude":-43.357834,"latitude":-22.999456},"userId":"2","type":"text","infobox":{"text":"Rua Fonseca n.º 240 Loja 127 - Bangu , Rio de Janeiro","title":"Shopping Bangu"}}{"scenarioId":110,"title":"LojasAmericanas","text":"Botafogo Praia Shopping","location":{"longitude":-43.357834,"latitude":-22.999456},"userId":"2","type":"text","infobox":{"text":"Praia de Botafogo, 400 - Botafogo , Rio de Janeiro","title":"Botafogo Praia Shopping"}}{"scenarioId":111,"title":"LojasAmericanas","text":"Buenos Aires","location":{"longitude":-43.17714,"latitude":-22.908892},"userId":"2","type":"text","infobox":{"text":"Rua Bueno Aires nºs 289 e 291 (térreo) - Centro , Rio de Janeiro","title":"Buenos Aires"}}{"scenarioId":112,"title":"LojasAmericanas","text":"Campo Grande RJ","location":{"longitude":-43.559345,"latitude":-22.9039},"userId":"2","type":"text","infobox":{"text":"Rua Cel. Agostinho, 112 - Campo Grande , Rio de Janeiro","title":"Campo Grande RJ"}}{"scenarioId":113,"title":"LojasAmericanas","text":"Carioca Shopping","location":{"longitude":-43.311813,"latitude":-22.851715},"userId":"2","type":"text","infobox":{"text":"Av. Vicente de Carvalho 909 Lj 201 - Vicente de Carvalho , Rio de Janeiro","title":"Carioca Shopping"}}{"scenarioId":114,"title":"LojasAmericanas","text":"Center Shopping Rio","location":{"longitude":-43.36079,"latitude":-22.924784},"userId":"2","type":"text","infobox":{"text":"Av. Geremário Dantas, 404, Lj 135 - Tanque , Rio de Janeiro","title":"Center Shopping Rio"}}{"scenarioId":115,"title":"LojasAmericanas","text":"Centro RJ","location":{"longitude":-43.180214,"latitude":-22.905258},"userId":"2","type":"text","infobox":{"text":"Rua do Ouvidor, 175 - Centro , Rio de Janeiro","title":"Centro RJ"}}{"scenarioId":116,"title":"LojasAmericanas","text":"Copacabana","location":{"longitude":-43.18568,"latitude":-22.969963},"userId":"2","type":"text","infobox":{"text":"Av. N.S. de Copacabana, 622 - Copacabana , Rio de Janeiro","title":"Copacabana"}}{"scenarioId":117,"title":"LojasAmericanas","text":"Ilha Plaza Shopping Center","location":{"longitude":-43.202206,"latitude":-22.80148},"userId":"2","type":"text","infobox":{"text":"Av. Maestro Paulo e Silva, 400 - Ilha do Governador , Rio de Janeiro","title":"Ilha Plaza Shopping Center"}}{"scenarioId":118,"title":"LojasAmericanas","text":"Ipanema","location":{"longitude":-43.210884,"latitude":-22.983868},"userId":"2","type":"text","infobox":{"text":"Rua Visc. de Pirajá, 526\/532 A - Ipanema , Rio de Janeiro","title":"Ipanema"}}{"scenarioId":119,"title":"LojasAmericanas","text":"Madureira","location":{"longitude":-43.338448,"latitude":-22.872892},"userId":"2","type":"text","infobox":{"text":"Estrada do Portela, 70\/80 - Madureira , Rio de Janeiro","title":"Madureira"}}{"scenarioId":120,"title":"LojasAmericanas","text":"Norte Shopping","location":{"longitude":-43.283638,"latitude":-22.887365},"userId":"2","type":"text","infobox":{"text":"Av. Dom Helder Câmara, 5332 Lj 2301 e 2401 - Del Castilho , Rio de Janeiro","title":"Norte Shopping"}}{"scenarioId":121,"title":"LojasAmericanas","text":"Nova América Shopping","location":{"longitude":-43.283638,"latitude":-22.887365},"userId":"2","type":"text","infobox":{"text":"Av. Pastor Martin Luther King Jr, 126 - Del Castilho , Rio de Janeiro","title":"Nova América Shopping"}}{"scenarioId":122,"title":"LojasAmericanas","text":"Park Shopping Campo Grande","location":{"longitude":-43.283638,"latitude":-22.887365},"userId":"2","type":"text","infobox":{"text":"Estrada do Monteiro n.º 1.200 Loja de Uso Comercial (LUC) nº 101-P 1º pavimento - Campo Grande , Rio de Janeiro","title":"Park Shopping Campo Grande"}}{"scenarioId":123,"title":"LojasAmericanas","text":"Passeio","location":{"longitude":-43.283638,"latitude":-22.887365},"userId":"2","type":"text","infobox":{"text":"Rua do Passeio, 42\/56 - Centro , Rio de Janeiro","title":"Passeio"}}{"scenarioId":124,"title":"LojasAmericanas","text":"Rio Sul Shopping Center","location":{"longitude":-43.176395,"latitude":-22.956572},"userId":"2","type":"text","infobox":{"text":"Rua Lauro Muller 116 lj 401 - Botafogo , Rio de Janeiro","title":"Rio Sul Shopping Center"}}{"scenarioId":125,"title":"LojasAmericanas","text":"Rua Conde de Bonfim","location":{"longitude":-43.2403,"latitude":-22.93219},"userId":"2","type":"text","infobox":{"text":"R. Conde de Bonfim nº 685 - Tijuca , Rio de Janeiro","title":"Rua Conde de Bonfim"}}{"scenarioId":126,"title":"LojasAmericanas","text":"Shopping Center Méier","location":{"longitude":-43.283333,"latitude":-22.9},"userId":"2","type":"text","infobox":{"text":"Rua Dias da Cruz, 255 Lj.228 2º Pavimento - Méier , Rio de Janeiro","title":"Shopping Center Méier"}}{"scenarioId":127,"title":"LojasAmericanas","text":"Shopping Iguatemi","location":{"longitude":-43.250473,"latitude":-22.920404},"userId":"2","type":"text","infobox":{"text":"Rua Barão de São Francisco, 236 - Vila Isabel , Rio de Janeiro","title":"Shopping Iguatemi"}}{"scenarioId":128,"title":"LojasAmericanas","text":"Shopping Jardim Guadalupe","location":{"longitude":-43.37528,"latitude":-22.837223},"userId":"2","type":"text","infobox":{"text":"Avenida Brasil, nº22.155, Guadalupe , Rio de Janeiro","title":"Shopping Jardim Guadalupe"}}{"scenarioId":129,"title":"LojasAmericanas","text":"Shopping Madureira","location":{"longitude":-43.341812,"latitude":-22.870628},"userId":"2","type":"text","infobox":{"text":"Estrada do Portela, 222 Loja 302 - Madureira , Rio de Janeiro","title":"Shopping Madureira"}}{"scenarioId":130,"title":"LojasAmericanas","text":"Shopping Tijuca","location":{"longitude":-43.235886,"latitude":-22.922546},"userId":"2","type":"text","infobox":{"text":"Av. Maracanã, 987 - Tijuca , Rio de Janeiro","title":"Shopping Tijuca"}}{"scenarioId":131,"title":"LojasAmericanas","text":"Taquara","location":{"longitude":-43.356014,"latitude":-22.929583},"userId":"2","type":"text","infobox":{"text":"Estrada do Tindiba n.º 1961 - Pechincha , Rio de Janeiro","title":"Taquara"}}{"scenarioId":132,"title":"LojasAmericanas","text":"Tijuca","location":{"longitude":-43.233215,"latitude":-22.924332},"userId":"2","type":"text","infobox":{"text":"Rua Conde de Bonfim, 362-A - Tijuca , Rio de Janeiro","title":"Tijuca"}}{"scenarioId":133,"title":"LojasAmericanas","text":"Via Brasil Shopping Rio","location":{"longitude":-43.323612,"latitude":-22.831112},"userId":"2","type":"text","infobox":{"text":"Rua Itapera n.º 500 - Irajá , Rio de Janeiro","title":"Via Brasil Shopping Rio"}}{"scenarioId":134,"title":"LojasAmericanas","text":"Via Parque Shopping","location":{"longitude":-43.323612,"latitude":-22.831112},"userId":"2","type":"text","infobox":{"text":"Av. Ayrton Senna, 3000 Lj 1091 - Barra da Tijuca , Rio de Janeiro","title":"Via Parque Shopping"}}{"scenarioId":135,"title":"LojasAmericanas","text":"Vila Isabel","location":{"longitude":-43.323612,"latitude":-22.831112},"userId":"2","type":"text","infobox":{"text":"Boulevard Vinte e Oito de Setembro nº 393-A - Vila Isabel , Rio de Janeiro","title":"Vila Isabel"}}{"scenarioId":136,"title":"LojasAmericanas","text":"West Shopping","location":{"longitude":-43.323612,"latitude":-22.831112},"userId":"2","type":"text","infobox":{"text":"Estrada do Mendanha 555 SUC 103 - Campo Grande , Rio de Janeiro","title":"West Shopping"}}{"scenarioId":137,"title":"LojasAmericanas","text":"Shopping Piratas","location":{"longitude":-43.209587,"latitude":-22.90354},"userId":"2","type":"text","infobox":{"text":"Estrada Municipal n.º 91 - Praia do Jardim , Rio de Janeiro","title":"Shopping Piratas"}}{"scenarioId":138,"title":"LojasAmericanas","text":"Araruama","location":{"longitude":-42.015022,"latitude":-22.880852},"userId":"2","type":"text","infobox":{"text":"Av. Nilo Peçanha, nº 259 - Centro , Rio de Janeiro","title":"Araruama"}}{"scenarioId":139,"title":"LojasAmericanas","text":"Búzios","location":{"longitude":-43.17714,"latitude":-22.908892},"userId":"2","type":"text","infobox":{"text":"Avenida José Bento Ribeiro Dantas n.º 33 Loja - Centro , Rio de Janeiro","title":"Búzios"}}{"scenarioId":140,"title":"LojasAmericanas","text":"Belford Roxo","location":{"longitude":-43.3965,"latitude":-22.769947},"userId":"2","type":"text","infobox":{"text":"Avenida Benjamim Pinto Dias nº 1130 Loja A - Belford Roxo , Rio de Janeiro","title":"Belford Roxo"}}{"scenarioId":141,"title":"LojasAmericanas","text":"Cabo Frio","location":{"longitude":-43.446926,"latitude":-22.75687},"userId":"2","type":"text","infobox":{"text":"Avenida Nilo Peçanha, 495 - Centro , Rio de Janeiro","title":"Cabo Frio"}}{"scenarioId":142,"title":"LojasAmericanas","text":"Teixeira e Souza","location":{"longitude":-43.209587,"latitude":-22.90354},"userId":"2","type":"text","infobox":{"text":"Avenida Teixeira e Souza n.º 956 , Rio de Janeiro","title":"Teixeira e Souza"}}{"scenarioId":143,"title":"LojasAmericanas","text":"Campos","location":{"longitude":-43.303448,"latitude":-22.790972},"userId":"2","type":"text","infobox":{"text":"R. Voluntários da Pátria nº 400 - Centro , Rio de Janeiro","title":"Campos"}}{"scenarioId":144,"title":"LojasAmericanas","text":"13 de Maio","location":{"longitude":-43.209587,"latitude":-22.90354},"userId":"2","type":"text","infobox":{"text":"Avenida Treze de Maio n.º 83 , Rio de Janeiro","title":"13 de Maio"}}{"scenarioId":145,"title":"LojasAmericanas","text":"Shopping Boulevard Campos","location":{"longitude":-41.34231,"latitude":-21.753988},"userId":"2","type":"text","infobox":{"text":"Rua Doutor Sílvio Bastos Tavares n.º 316\/338 - Parque Leopoldina , Rio de Janeiro","title":"Shopping Boulevard Campos"}}{"scenarioId":146,"title":"LojasAmericanas","text":"Caxias","location":{"longitude":-43.17589,"latitude":-22.90641},"userId":"2","type":"text","infobox":{"text":"Av. Nilo Peçanha, 145 - Centro , Rio de Janeiro","title":"Caxias"}}{"scenarioId":147,"title":"LojasAmericanas","text":"Caxias 2","location":{"longitude":-43.17589,"latitude":-22.90641},"userId":"2","type":"text","infobox":{"text":"Avenida Governador Leonel de Moura Brizola nºs. 1961 e 1975 - Centro , Rio de Janeiro","title":"Caxias 2"}}{"scenarioId":148,"title":"LojasAmericanas","text":"Centro","location":{"longitude":-43.17589,"latitude":-22.90641},"userId":"2","type":"text","infobox":{"text":"Av. Alberto Braune nº 124, 128 e 136 - Centro , Rio de Janeiro","title":"Centro"}}{"scenarioId":149,"title":"LojasAmericanas","text":"Itaboraí","location":{"longitude":-43.17589,"latitude":-22.90641},"userId":"2","type":"text","infobox":{"text":"Avenida 22 de Maio, 5973 - Outeiro das Pedras , Rio de Janeiro","title":"Itaboraí"}}{"scenarioId":150,"title":"LojasAmericanas","text":"Itaguaí","location":{"longitude":-43.209587,"latitude":-22.90354},"userId":"2","type":"text","infobox":{"text":"Rua Doutor Monteiro de Azevedo n.º 34, 335\/394 , Rio de Janeiro","title":"Itaguaí"}}{"scenarioId":151,"title":"LojasAmericanas","text":"Shopping Pátio Mix","location":{"longitude":-43.759743,"latitude":-22.849066},"userId":"2","type":"text","infobox":{"text":"Rodovia Rio-Santos s\/nº (Trevo de Itaguaí) - Vila Ibirapitanga , Rio de Janeiro","title":"Shopping Pátio Mix"}}{"scenarioId":152,"title":"LojasAmericanas","text":"Itaperuna","location":{"longitude":-43.209587,"latitude":-22.90354},"userId":"2","type":"text","infobox":{"text":"Avenida Presidente Dutra n.º 1250 , Rio de Janeiro","title":"Itaperuna"}}{"scenarioId":153,"title":"LojasAmericanas","text":"Plaza Macaé","location":{"longitude":-43.209587,"latitude":-22.90354},"userId":"2","type":"text","infobox":{"text":"Rua Aluizio da Silva Gomes s\/n - Granja dos Cavalheiros , Rio de Janeiro","title":"Plaza Macaé"}}{"scenarioId":154,"title":"LojasAmericanas","text":"Macaé","location":{"longitude":-41.778236,"latitude":-22.371897},"userId":"2","type":"text","infobox":{"text":"Avenida Rui Barbosa nº. 253 - Centro , Rio de Janeiro","title":"Macaé"}}{"scenarioId":155,"title":"LojasAmericanas","text":"Magé","location":{"longitude":-43.17714,"latitude":-22.908892},"userId":"2","type":"text","infobox":{"text":"Avenida Padre Anchieta n.º 137 Lote 4 Quadra A - Centro , Rio de Janeiro","title":"Magé"}}{"scenarioId":156,"title":"LojasAmericanas","text":"Center Inoã","location":{"longitude":-43.209587,"latitude":-22.90354},"userId":"2","type":"text","infobox":{"text":"Estrada de Itaipuaçu QD. 14 - LOTE 03A - Chácaras Inohan , Rio de Janeiro","title":"Center Inoã"}}{"scenarioId":157,"title":"LojasAmericanas","text":"Maricá","location":{"longitude":-43.17714,"latitude":-22.908892},"userId":"2","type":"text","infobox":{"text":"Rua Ribeiro de Almeida n.º 80 - Centro , Rio de Janeiro","title":"Maricá"}}{"scenarioId":158,"title":"LojasAmericanas","text":"Carmela Dutra","location":{"longitude":-43.17714,"latitude":-22.908892},"userId":"2","type":"text","infobox":{"text":"Rua Carmela Dutra n.º 1748 - Centro , Rio de Janeiro","title":"Carmela Dutra"}}{"scenarioId":159,"title":"LojasAmericanas","text":"Nilópolis","location":{"longitude":-43.421124,"latitude":-22.80812},"userId":"2","type":"text","infobox":{"text":"Av. Mirandela, 290 - Centro , Rio de Janeiro","title":"Nilópolis"}}{"scenarioId":160,"title":"LojasAmericanas","text":"Bay Market","location":{"longitude":-43.421124,"latitude":-22.80812},"userId":"2","type":"text","infobox":{"text":"Av. Visconde do Rio Branco, 360 - Lj 127 a 131 e 135 a 138 - Centro , Rio de Janeiro","title":"Bay Market"}}{"scenarioId":161,"title":"LojasAmericanas","text":"Icaraí","location":{"longitude":-43.421124,"latitude":-22.80812},"userId":"2","type":"text","infobox":{"text":"Rua Coronel Moreira César, 282 Lj 101 - Icaraí , Rio de Janeiro","title":"Icaraí"}}{"scenarioId":162,"title":"LojasAmericanas","text":"Shopping Itaipu","location":{"longitude":-43.028294,"latitude":-22.952223},"userId":"2","type":"text","infobox":{"text":"Estr. Francisco da Cruz Nunes nº 6501 LJ 101 - Itaipu , Rio de Janeiro","title":"Shopping Itaipu"}}{"scenarioId":163,"title":"LojasAmericanas","text":"Icaraí","location":{"longitude":-43.11064,"latitude":-22.903147},"userId":"2","type":"text","infobox":{"text":"Rua Gavião Peixoto, 120 - Icaraí , Rio de Janeiro","title":"Icaraí"}}{"scenarioId":164,"title":"LojasAmericanas","text":"Piratininga","location":{"longitude":-43.072903,"latitude":-22.946308},"userId":"2","type":"text","infobox":{"text":"Estrada Francisco da Cruz Nunes n.º 5950 - Piratininga , Rio de Janeiro","title":"Piratininga"}}{"scenarioId":165,"title":"LojasAmericanas","text":"Santa Rosa","location":{"longitude":-43.094738,"latitude":-22.89836},"userId":"2","type":"text","infobox":{"text":"Rua Santa Rosa nº 47 - Lojas 101 e 201 - Santa Rosa , Rio de Janeiro","title":"Santa Rosa"}}{"scenarioId":166,"title":"LojasAmericanas","text":"Gavião Peixoto","location":{"longitude":-43.11018,"latitude":-22.90725},"userId":"2","type":"text","infobox":{"text":"Rua Gavião Peixoto n.º 171, Lojas 105- A - 1º e 2º pavtºs - Icaraí , Rio de Janeiro","title":"Gavião Peixoto"}}{"scenarioId":167,"title":"LojasAmericanas","text":"Fonseca","location":{"longitude":-43.085033,"latitude":-22.877718},"userId":"2","type":"text","infobox":{"text":"Alameda São Boaventura n.º 896 A - Fonseca , Rio de Janeiro","title":"Fonseca"}}{"scenarioId":168,"title":"LojasAmericanas","text":"Niterói","location":{"longitude":-43.12224,"latitude":-22.892841},"userId":"2","type":"text","infobox":{"text":"Rua Visconde de Uruguai, 503\/507 , Rio de Janeiro","title":"Niterói"}}{"scenarioId":169,"title":"LojasAmericanas","text":"Plaza Shopping Niterói","location":{"longitude":-43.124092,"latitude":-22.895977},"userId":"2","type":"text","infobox":{"text":"Rua XV de Novembro, 8 - Centro , Rio de Janeiro","title":"Plaza Shopping Niterói"}}{"scenarioId":170,"title":"LojasAmericanas","text":"Friburgo 2","location":{"longitude":-43.209587,"latitude":-22.90354},"userId":"2","type":"text","infobox":{"text":"Rua Júlio Antonio Thurler n.º 129 - Área B\/Loja\/Depósito , Rio de Janeiro","title":"Friburgo 2"}}{"scenarioId":171,"title":"LojasAmericanas","text":"Rua Cel Francisco Soares","location":{"longitude":-43.446022,"latitude":-22.760212},"userId":"2","type":"text","infobox":{"text":"Rua Coronel Francisco Soares nº 202 - Centro , Rio de Janeiro","title":"Rua Cel Francisco Soares"}}{"scenarioId":172,"title":"LojasAmericanas","text":"Loja do Centro de Distribuição do Rio de Janeiro","location":{"longitude":-43.446022,"latitude":-22.760212},"userId":"2","type":"text","infobox":{"text":", Rio de Janeiro","title":"Loja do Centro de Distribuição do Rio de Janeiro"}}{"scenarioId":173,"title":"LojasAmericanas","text":"Iguaçu Top Shopping","location":{"longitude":-43.446022,"latitude":-22.760212},"userId":"2","type":"text","infobox":{"text":"Av. Governador Roberto Silveira, 540 - Centro , Rio de Janeiro","title":"Iguaçu Top Shopping"}}{"scenarioId":174,"title":"LojasAmericanas","text":"Nova Iguaçu","location":{"longitude":-43.446022,"latitude":-22.760212},"userId":"2","type":"text","infobox":{"text":"Rua Gov. Amaral Peixoto, 277 - Centro , Rio de Janeiro","title":"Nova Iguaçu"}}{"scenarioId":175,"title":"LojasAmericanas","text":"Petrópolis","location":{"longitude":-43.209587,"latitude":-22.90354},"userId":"2","type":"text","infobox":{"text":"Rua Coronel Veiga, 711 - Coronel Veiga , Rio de Janeiro","title":"Petrópolis"}}{"scenarioId":176,"title":"LojasAmericanas","text":"Shopping Center Bauhaus","location":{"longitude":-43.17714,"latitude":-22.908892},"userId":"2","type":"text","infobox":{"text":"Rua Dr. Nelson Sá Earp n.º 88 - Centro , Rio de Janeiro","title":"Shopping Center Bauhaus"}}{"scenarioId":177,"title":"LojasAmericanas","text":"Shopping Estação Itaipava","location":{"longitude":-43.13333,"latitude":-22.383333},"userId":"2","type":"text","infobox":{"text":"Estrada União e Indústria n.º 11.000 Loja 69 - Itaipava , Rio de Janeiro","title":"Shopping Estação Itaipava"}}{"scenarioId":178,"title":"LojasAmericanas","text":"Hipershopping ABC","location":{"longitude":-43.173504,"latitude":-22.519863},"userId":"2","type":"text","infobox":{"text":"R. Teresa, nº 1515 - Salão Comercial nº 42 - Alto da Serra , Rio de Janeiro","title":"Hipershopping ABC"}}{"scenarioId":179,"title":"LojasAmericanas","text":"Petrópolis","location":{"longitude":-43.428936,"latitude":-22.763939},"userId":"2","type":"text","infobox":{"text":"Rua Imperador, 428 - Centro , Rio de Janeiro","title":"Petrópolis"}}{"scenarioId":180,"title":"LojasAmericanas","text":"Shopping Estação Queimados","location":{"longitude":-43.555912,"latitude":-22.715704},"userId":"2","type":"text","infobox":{"text":"Rua Eloi Teixeira s\/nº , Rio de Janeiro","title":"Shopping Estação Queimados"}}{"scenarioId":181,"title":"LojasAmericanas","text":"Pátio Mix Resende","location":{"longitude":-43.079575,"latitude":-22.83235},"userId":"2","type":"text","infobox":{"text":"Rua Dorival Marcondes Godoy n.º 500 LUC n.º 1010\/1011 - Paraíso , Rio de Janeiro","title":"Pátio Mix Resende"}}{"scenarioId":182,"title":"LojasAmericanas","text":"Resende Shopping","location":{"longitude":-41.31476,"latitude":-21.755995},"userId":"2","type":"text","infobox":{"text":"Av. Saturnino Braga, 369 - Centro , Rio de Janeiro","title":"Resende Shopping"}}{"scenarioId":183,"title":"LojasAmericanas","text":"Rio das Ostras","location":{"longitude":-43.209587,"latitude":-22.90354},"userId":"2","type":"text","infobox":{"text":"Avenida Casimiro de Abreu nº 4340 - Lote 21-A, Quadra 3 - Balneário Remanso , Rio de Janeiro","title":"Rio das Ostras"}}{"scenarioId":184,"title":"LojasAmericanas","text":"Rua Barcelos Domingos","location":{"longitude":-43.55985,"latitude":-22.900543},"userId":"2","type":"text","infobox":{"text":"Rua Barcelos Domingos nºs 25 e 27 ; Rua Campo Grande nº 1040 ; Rua Aracaju nº 126 - Campo Grande , Rio de Janeiro","title":"Rua Barcelos Domingos"}}{"scenarioId":185,"title":"LojasAmericanas","text":"18 do Forte","location":{"longitude":-43.55985,"latitude":-22.900543},"userId":"2","type":"text","infobox":{"text":"Av. Dezoito do Forte nº. 160 - Mutuá , Rio de Janeiro","title":"18 do Forte"}}{"scenarioId":186,"title":"LojasAmericanas","text":"São Gonçalo","location":{"longitude":-43.05713,"latitude":-22.830893},"userId":"2","type":"text","infobox":{"text":"Rua Moreira César n.º 105 Lojas nºs. 101 e 102 - Zé Garoto , Rio de Janeiro","title":"São Gonçalo"}}{"scenarioId":187,"title":"LojasAmericanas","text":"Alcântara","location":{"longitude":-43.003696,"latitude":-22.824818},"userId":"2","type":"text","infobox":{"text":"Rua Manuel João Gonçalves n.º 188 - Alcântara , Rio de Janeiro","title":"Alcântara"}}{"scenarioId":188,"title":"LojasAmericanas","text":"Shopping São Gonçalo","location":{"longitude":-43.04799,"latitude":-22.822294},"userId":"2","type":"text","infobox":{"text":"Avenida São Gonçalo, 100 Lj 116 - Boa Vista , Rio de Janeiro","title":"Shopping São Gonçalo"}}{"scenarioId":189,"title":"LojasAmericanas","text":"Shopping Grande Rio","location":{"longitude":-43.415997,"latitude":-22.807085},"userId":"2","type":"text","infobox":{"text":"Estrada Municipal São João de Meriti, 111 Lj 323 - Centro , Rio de Janeiro","title":"Shopping Grande Rio"}}{"scenarioId":190,"title":"LojasAmericanas","text":"São João de Meriti","location":{"longitude":-43.377724,"latitude":-22.793917},"userId":"2","type":"text","infobox":{"text":"Rua da Matriz nº 355 - Loja - Centro , Rio de Janeiro","title":"São João de Meriti"}}{"scenarioId":191,"title":"LojasAmericanas","text":"São Pedro da Aldeia","location":{"longitude":-43.17714,"latitude":-22.908892},"userId":"2","type":"text","infobox":{"text":"Rua Doutor Antonio Alves n.º 140 Térreo - Centro , Rio de Janeiro","title":"São Pedro da Aldeia"}}{"scenarioId":192,"title":"LojasAmericanas","text":"Teresópolis","location":{"longitude":-42.979393,"latitude":-22.440655},"userId":"2","type":"text","infobox":{"text":"Rua Oliveira Botelho n.º 417, 417\/1 e 417\/2 - Alto , Rio de Janeiro","title":"Teresópolis"}}{"scenarioId":193,"title":"LojasAmericanas","text":"Teresópolis Shopping Center","location":{"longitude":-43.209587,"latitude":-22.90354},"userId":"2","type":"text","infobox":{"text":"Rua Edmundo Bittencourt n.º 101 Lojas 205; 211 e 307, 2º e 3º piso - Várzea , Rio de Janeiro","title":"Teresópolis Shopping Center"}}{"scenarioId":194,"title":"LojasAmericanas","text":"Três Rios","location":{"longitude":-49.343628,"latitude":-26.879757},"userId":"2","type":"text","infobox":{"text":"Rua Barão do Rio Branco n.º 173 Lojas 08, 09, 10 e 11 - Centro , Rio de Janeiro","title":"Três Rios"}}{"scenarioId":195,"title":"LojasAmericanas","text":"Retiro","location":{"longitude":-44.108032,"latitude":-22.499252},"userId":"2","type":"text","infobox":{"text":"Avenida Savio Cota de Almeida Gama nº 2009 - Retiro , Rio de Janeiro","title":"Retiro"}}{"scenarioId":196,"title":"LojasAmericanas","text":"Volta Redonda","location":{"longitude":-44.108032,"latitude":-22.499252},"userId":"2","type":"text","infobox":{"text":"Praça Brasil, 171 - Vila Santa Cecília , Rio de Janeiro","title":"Volta Redonda"}}{"scenarioId":197,"title":"LojasAmericanas","text":"Via Verde Shopping","location":{"longitude":-44.108032,"latitude":-22.499252},"userId":"2","type":"text","infobox":{"text":"BR-364, n.º 1707 - Rio Branco , Rio Branco","title":"Via Verde Shopping"}}{"scenarioId":198,"title":"LojasAmericanas","text":"Shopping Center Cidade Maceió","location":{"longitude":-35.7325,"latitude":-9.649008},"userId":"2","type":"text","infobox":{"text":"Avenida Fernandes Lima n.º 679 - Farol , Maceió","title":"Shopping Center Cidade Maceió"}}{"scenarioId":199,"title":"LojasAmericanas","text":"Centro","location":{"longitude":-35.72625,"latitude":-9.670585},"userId":"2","type":"text","infobox":{"text":"Av. Duque de Caxias, 1792 - Centro , Maceió","title":"Centro"}}{"scenarioId":200,"title":"LojasAmericanas","text":"Juca Sampaio","location":{"longitude":-35.715473,"latitude":-9.631208},"userId":"2","type":"text","infobox":{"text":"Avenida Juca Sampaio, 2178 - Barro Duro , Maceió","title":"Juca Sampaio"}}{"scenarioId":201,"title":"LojasAmericanas","text":"Shopping Iguatemi","location":{"longitude":-35.704308,"latitude":-9.638007},"userId":"2","type":"text","infobox":{"text":"Av. Gustavo Paiva, 2990 - Mangabeira , Maceió","title":"Shopping Iguatemi"}}{"scenarioId":202,"title":"LojasAmericanas","text":"Arapiraca","location":{"longitude":-35.704308,"latitude":-9.638007},"userId":"2","type":"text","infobox":{"text":"Rua Quinze de Novembro nº 67 - Centro , Maceió","title":"Arapiraca"}}{"scenarioId":203,"title":"LojasAmericanas","text":"Villa Nova Shopping","location":{"longitude":-35.704308,"latitude":-9.638007},"userId":"2","type":"text","infobox":{"text":"Avenida Presidente Vargas nº 341 térreo (sala 1) e 1º andar (sala 2) , Macapá","title":"Villa Nova Shopping"}}{"scenarioId":204,"title":"LojasAmericanas","text":"Manaus Plaza Shopping","location":{"longitude":-60.02408,"latitude":-3.093974},"userId":"2","type":"text","infobox":{"text":"Av Djalma Baptista, 2100 - Chapada , Manaus","title":"Manaus Plaza Shopping"}}{"scenarioId":205,"title":"LojasAmericanas","text":"Marques de Santa Cruz ( Porto )","location":{"longitude":-60.020164,"latitude":-3.1338418},"userId":"2","type":"text","infobox":{"text":"Rua Marquês de Santa Cruz n.º 25 - Centro , Manaus","title":"Marques de Santa Cruz ( Porto )"}}{"scenarioId":206,"title":"LojasAmericanas","text":"Millenium Shopping Mall","location":{"longitude":-60.024033,"latitude":-3.089055},"userId":"2","type":"text","infobox":{"text":"Av. Djalma Batista, 1661 - Chapada , Manaus","title":"Millenium Shopping Mall"}}{"scenarioId":207,"title":"LojasAmericanas","text":"Rua 7 de Setembro","location":{"longitude":-60.019806,"latitude":-3.134715},"userId":"2","type":"text","infobox":{"text":"Avenida 7 de Setembro, nº 1.199 - Centro , Manaus","title":"Rua 7 de Setembro"}}{"scenarioId":208,"title":"LojasAmericanas","text":"Aeroclube Shopping & Office","location":{"longitude":-38.426582,"latitude":-12.979217},"userId":"2","type":"text","infobox":{"text":"Av. Otávio Mangabeira n.º 6000 - Boca do Rio , Salvador","title":"Aeroclube Shopping & Office"}}{"scenarioId":209,"title":"LojasAmericanas","text":"Aquidabã","location":{"longitude":-38.50521,"latitude":-12.968486},"userId":"2","type":"text","infobox":{"text":"Avenida José Joaquim Seabra n.º 368 e 370 - Baixa dos Sapateiros , Salvador","title":"Aquidabã"}}{"scenarioId":210,"title":"LojasAmericanas","text":"Cidade Baixa","location":{"longitude":-38.50118,"latitude":-12.945934},"userId":"2","type":"text","infobox":{"text":"Rua Padre Antonio de Sá n.º 103 (08) - Calçada , Salvador","title":"Cidade Baixa"}}{"scenarioId":211,"title":"LojasAmericanas","text":"Salvador Norte Shopping","location":{"longitude":-38.34822,"latitude":-12.910141},"userId":"2","type":"text","infobox":{"text":"Rodovia BA - 526 nº 305 - São Cristovão , Salvador","title":"Salvador Norte Shopping"}}{"scenarioId":212,"title":"LojasAmericanas","text":"Salvador Shopping","location":{"longitude":-38.45581,"latitude":-12.976368},"userId":"2","type":"text","infobox":{"text":"Rua Tancredo Neves, 2915 - Caminho das Árvores , Salvador","title":"Salvador Shopping"}}{"scenarioId":213,"title":"LojasAmericanas","text":"São Cristovão","location":{"longitude":-38.45581,"latitude":-12.976368},"userId":"2","type":"text","infobox":{"text":"Avenida Aliomar Baleeiro n.º 578 (antigo 15375) - Lojas 02 e 03 -São Cristovão , Salvador","title":"São Cristovão"}}{"scenarioId":214,"title":"LojasAmericanas","text":"Shopping Barra","location":{"longitude":-38.508015,"latitude":-12.989045},"userId":"2","type":"text","infobox":{"text":"Av. Centenário, 2992 - Chame-Chame , Salvador","title":"Shopping Barra"}}{"scenarioId":215,"title":"LojasAmericanas","text":"Shopping Bela Vista","location":{"longitude":-38.508015,"latitude":-12.989045},"userId":"2","type":"text","infobox":{"text":"Rua dos Rodoviários s\/nº - SUC n.º 60.1 do 1º Piso , Salvador","title":"Shopping Bela Vista"}}{"scenarioId":216,"title":"LojasAmericanas","text":"Shopping Iguatemi","location":{"longitude":-38.471924,"latitude":-12.978315},"userId":"2","type":"text","infobox":{"text":"Av. Antonio Carlos Magalhães s\/n - Pituba , Salvador","title":"Shopping Iguatemi"}}{"scenarioId":217,"title":"LojasAmericanas","text":"Shopping Lapa","location":{"longitude":-38.514256,"latitude":-12.98288},"userId":"2","type":"text","infobox":{"text":"Portão da Piedade, 155 - Piedade , Salvador","title":"Shopping Lapa"}}{"scenarioId":218,"title":"LojasAmericanas","text":"Shopping Paralela","location":{"longitude":-38.44229,"latitude":-12.970606},"userId":"2","type":"text","infobox":{"text":"Av. Luis Viana, 8.544 - Paralela , Salvador","title":"Shopping Paralela"}}{"scenarioId":219,"title":"LojasAmericanas","text":"Shopping Piedade","location":{"longitude":-38.512753,"latitude":-12.984668},"userId":"2","type":"text","infobox":{"text":"Rua Junqueira Ayres, 8 - Barris , Salvador","title":"Shopping Piedade"}}{"scenarioId":220,"title":"LojasAmericanas","text":"Alagoinhas","location":{"longitude":-38.4951,"latitude":-12.94865},"userId":"2","type":"text","infobox":{"text":"Rua Treze de Maio n.º 107 - Centro , Salvador","title":"Alagoinhas"}}{"scenarioId":221,"title":"LojasAmericanas","text":"Barreiras","location":{"longitude":-49.089172,"latitude":-22.311634},"userId":"2","type":"text","infobox":{"text":"Rua Princesa Isabel n.º 361 - Primavera , Salvador","title":"Barreiras"}}{"scenarioId":222,"title":"LojasAmericanas","text":"Camaçari","location":{"longitude":-38.374462,"latitude":-12.926189},"userId":"2","type":"text","infobox":{"text":"Rua Duque de Caxias n.º 309 , Salvador","title":"Camaçari"}}{"scenarioId":223,"title":"LojasAmericanas","text":"Eunápolis","location":{"longitude":-38.436756,"latitude":-12.94334},"userId":"2","type":"text","infobox":{"text":"Rua Porto Seguro, 615 - Centro , Salvador","title":"Eunápolis"}}{"scenarioId":224,"title":"LojasAmericanas","text":"Feira de Santana \/ Av. Passos","location":{"longitude":-38.483917,"latitude":-12.956375},"userId":"2","type":"text","infobox":{"text":"Avenida Senhor dos Passos n.º 942 - Centro , Salvador","title":"Feira de Santana \/ Av. Passos"}}{"scenarioId":225,"title":"LojasAmericanas","text":"Shc. Iguatemi","location":{"longitude":-38.483917,"latitude":-12.956375},"userId":"2","type":"text","infobox":{"text":"Av João Durval Carneiro, 3665 - Campo do Gado , Salvador","title":"Shc. Iguatemi"}}{"scenarioId":226,"title":"LojasAmericanas","text":"Gabriela Center","location":{"longitude":-38.483917,"latitude":-12.956375},"userId":"2","type":"text","infobox":{"text":"Av. Itabuna nº 1491 - Conquista , Salvador","title":"Gabriela Center"}}{"scenarioId":227,"title":"LojasAmericanas","text":"Ilhéus","location":{"longitude":-38.483917,"latitude":-12.956375},"userId":"2","type":"text","infobox":{"text":"Rua Bento Berilo nºs 35\/43 - Centro , Salvador","title":"Ilhéus"}}{"scenarioId":228,"title":"LojasAmericanas","text":"Itabuna","location":{"longitude":-38.483917,"latitude":-12.956375},"userId":"2","type":"text","infobox":{"text":"Rua São Vicente de Paula n.º 152 -Oswaldo Cruz , Salvador","title":"Itabuna"}}{"scenarioId":229,"title":"LojasAmericanas","text":"Jequitibá Plaza Shopping","location":{"longitude":-38.483917,"latitude":-12.956375},"userId":"2","type":"text","infobox":{"text":"Av. Azis Maron, s\/ número - Goes Calmon , Salvador","title":"Jequitibá Plaza Shopping"}}{"scenarioId":230,"title":"LojasAmericanas","text":"Jequié","location":{"longitude":-38.483917,"latitude":-12.956375},"userId":"2","type":"text","infobox":{"text":"Rua Dez de Novembro nº 04 - Centro , Salvador","title":"Jequié"}}{"scenarioId":231,"title":"LojasAmericanas","text":"Av. Dr. Raul Alves","location":{"longitude":-38.483917,"latitude":-12.956375},"userId":"2","type":"text","infobox":{"text":"Avenida Raul Alves n.º 4 - Santo Antônio , Salvador","title":"Av. Dr. Raul Alves"}}{"scenarioId":232,"title":"LojasAmericanas","text":"Lauro de Freitas","location":{"longitude":-38.483917,"latitude":-12.956375},"userId":"2","type":"text","infobox":{"text":"Avenida Santos Dumont n.º 6008 - Portão , Salvador","title":"Lauro de Freitas"}}{"scenarioId":233,"title":"LojasAmericanas","text":"Luís Eduardo Magalhães","location":{"longitude":-38.483917,"latitude":-12.956375},"userId":"2","type":"text","infobox":{"text":"Rua Pernambuco n.º 111, térreo e 1º andar , Salvador","title":"Luís Eduardo Magalhães"}}{"scenarioId":234,"title":"LojasAmericanas","text":"Paulo Afonso","location":{"longitude":-38.483917,"latitude":-12.956375},"userId":"2","type":"text","infobox":{"text":"Avenida Apolônio Sales s\/nº - Centro , Salvador","title":"Paulo Afonso"}}{"scenarioId":235,"title":"LojasAmericanas","text":"Santo Antonio de Jesus","location":{"longitude":-38.483917,"latitude":-12.956375},"userId":"2","type":"text","infobox":{"text":"Praça Félix Gaspar n.º 53 - Centro , Salvador","title":"Santo Antonio de Jesus"}}{"scenarioId":236,"title":"LojasAmericanas","text":"Senhor do Bonfim","location":{"longitude":-38.483917,"latitude":-12.956375},"userId":"2","type":"text","infobox":{"text":"Praça Doutor José Gonçalves n.º 260 - Centro , Salvador","title":"Senhor do Bonfim"}}{"scenarioId":237,"title":"LojasAmericanas","text":"Simões Filho","location":{"longitude":-38.483917,"latitude":-12.956375},"userId":"2","type":"text","infobox":{"text":"Avenida Luiz Eduardo n.º 66 Loja 2, e n.º 86 Loja 1 - Centro , Salvador","title":"Simões Filho"}}{"scenarioId":238,"title":"LojasAmericanas","text":"Teixeira de Freitas","location":{"longitude":-38.492596,"latitude":-13.002092},"userId":"2","type":"text","infobox":{"text":"Rua Flaviano Guimarães, 35 - Centro , Salvador","title":"Teixeira de Freitas"}}{"scenarioId":239,"title":"LojasAmericanas","text":"Shopping Conquista Sul","location":{"longitude":-38.492596,"latitude":-13.002092},"userId":"2","type":"text","infobox":{"text":"Avenida Juracy Magalhães, Quadra 07 - Felícia , Salvador","title":"Shopping Conquista Sul"}}{"scenarioId":240,"title":"LojasAmericanas","text":"Abolição","location":{"longitude":-38.495655,"latitude":-3.7273662},"userId":"2","type":"text","infobox":{"text":"Av. da Abolição, 2600 - Aldeota , Fortaleza","title":"Abolição"}}{"scenarioId":241,"title":"LojasAmericanas","text":"Bezerra de Menezes","location":{"longitude":-38.552578,"latitude":-3.7333121},"userId":"2","type":"text","infobox":{"text":"Av Bezerra de Menezes, 871 - Parquelândia , Fortaleza","title":"Bezerra de Menezes"}}{"scenarioId":242,"title":"LojasAmericanas","text":"Casablanca","location":{"longitude":-38.48924,"latitude":-3.74588},"userId":"2","type":"text","infobox":{"text":"Rua Eng. Santana Junior, 2277 Lj. 15 a 18 - Papicú , Fortaleza","title":"Casablanca"}}{"scenarioId":243,"title":"LojasAmericanas","text":"Dom Luis","location":{"longitude":-38.489162,"latitude":-3.7360008},"userId":"2","type":"text","infobox":{"text":"Avenida Dom Luis, 1400 - Meirelles , Fortaleza","title":"Dom Luis"}}{"scenarioId":244,"title":"LojasAmericanas","text":"Montese","location":{"longitude":-38.549923,"latitude":-3.7661269},"userId":"2","type":"text","infobox":{"text":"Avenida Professor Gomes de Matos, 1703 - Montese , Fortaleza","title":"Montese"}}{"scenarioId":245,"title":"LojasAmericanas","text":"Shopping Aldeota","location":{"longitude":-38.503387,"latitude":-3.7375798},"userId":"2","type":"text","infobox":{"text":"Av. Dom Luís n.º 500 - Aldeota , Fortaleza","title":"Shopping Aldeota"}}{"scenarioId":246,"title":"LojasAmericanas","text":"Shopping Via Sul","location":{"longitude":-38.47994,"latitude":-3.7951355},"userId":"2","type":"text","infobox":{"text":"Av. Washington Soares, 4335 - Sapiranga , Fortaleza","title":"Shopping Via Sul"}}{"scenarioId":247,"title":"LojasAmericanas","text":"Fortaleza","location":{"longitude":-38.5283,"latitude":-3.7264733},"userId":"2","type":"text","infobox":{"text":"Rua Barão do Rio Branco, 922 - Centro , Fortaleza","title":"Fortaleza"}}{"scenarioId":248,"title":"LojasAmericanas","text":"Francisco Sá","location":{"longitude":-38.555916,"latitude":-3.7186232},"userId":"2","type":"text","infobox":{"text":"Rua Francisco Sá n.º 3780 Loja n.º 1 - Carlito Pamplona , Fortaleza","title":"Francisco Sá"}}{"scenarioId":249,"title":"LojasAmericanas","text":"General Sampaio","location":{"longitude":-38.530094,"latitude":-3.7245457},"userId":"2","type":"text","infobox":{"text":"Rua Genaral Sampaio, 677 - Centro , Fortaleza","title":"General Sampaio"}}{"scenarioId":250,"title":"LojasAmericanas","text":"North Shopping","location":{"longitude":-38.530094,"latitude":-3.7245457},"userId":"2","type":"text","infobox":{"text":"Av Bezerra de Menezes, 2450 - São Gerardo , Fortaleza","title":"North Shopping"}}{"scenarioId":251,"title":"LojasAmericanas","text":"Pátio Água Fria (Open Mall)","location":{"longitude":-38.530094,"latitude":-3.7245457},"userId":"2","type":"text","infobox":{"text":"Av. Washington Soares n.º 3690 Loja 5 - piso térreo - Água Fria , Fortaleza","title":"Pátio Água Fria (Open Mall)"}}{"scenarioId":252,"title":"LojasAmericanas","text":"Shopping Benfica","location":{"longitude":-38.54028,"latitude":-3.7399075},"userId":"2","type":"text","infobox":{"text":"Av. Carapinima, 2200 - Benfica , Fortaleza","title":"Shopping Benfica"}}{"scenarioId":253,"title":"LojasAmericanas","text":"Shopping Del Paseo","location":{"longitude":-38.49665,"latitude":-3.7367413},"userId":"2","type":"text","infobox":{"text":"Av. Santos Dumont, 3131 - Aldeota , Fortaleza","title":"Shopping Del Paseo"}}{"scenarioId":254,"title":"LojasAmericanas","text":"Shopping Iguatemi","location":{"longitude":-38.49059,"latitude":-3.7571247},"userId":"2","type":"text","infobox":{"text":"Av. Washington Soares 85 - Edson Queiroz , Fortaleza","title":"Shopping Iguatemi"}}{"scenarioId":255,"title":"LojasAmericanas","text":"Shopping Pátio Arvoredo","location":{"longitude":-38.550667,"latitude":-3.8123517},"userId":"2","type":"text","infobox":{"text":"Rua \"G\" (Loteamenteo Prq. Montenegro I) n.º 200 - Parque Dois Irmãos , Fortaleza","title":"Shopping Pátio Arvoredo"}}{"scenarioId":256,"title":"LojasAmericanas","text":"Shopping Pátio Dom Luis","location":{"longitude":-38.49046,"latitude":-3.7355723},"userId":"2","type":"text","infobox":{"text":"Av. Dom Luís, 1.200 - Meireles , Fortaleza","title":"Shopping Pátio Dom Luis"}}{"scenarioId":257,"title":"LojasAmericanas","text":"Antônio Sales","location":{"longitude":-38.49678,"latitude":-3.7471852},"userId":"2","type":"text","infobox":{"text":"Av. Antônio Sales, 3031 - Dionísio Torres , Fortaleza","title":"Antônio Sales"}}{"scenarioId":258,"title":"LojasAmericanas","text":"Shopping Caucaia","location":{"longitude":-38.543396,"latitude":-3.7183943},"userId":"2","type":"text","infobox":{"text":"Avenida Edson da Mota Correia n.º 620 - Loja n.º 141 , Fortaleza","title":"Shopping Caucaia"}}{"scenarioId":259,"title":"LojasAmericanas","text":"Crato","location":{"longitude":-38.52178,"latitude":-3.7305355},"userId":"2","type":"text","infobox":{"text":"Rua Santos Dumont, 60 e R. José Carvalho, 93 (antigo n.º 25) - Centro , Fortaleza","title":"Crato"}}{"scenarioId":260,"title":"LojasAmericanas","text":"Juazeiro do Norte","location":{"longitude":-38.52178,"latitude":-3.7305355},"userId":"2","type":"text","infobox":{"text":"Rua do Cruzeiro n.º 135 - Centro , Fortaleza","title":"Juazeiro do Norte"}}{"scenarioId":261,"title":"LojasAmericanas","text":"Cariri Shopping Center","location":{"longitude":-38.543396,"latitude":-3.7183943},"userId":"2","type":"text","infobox":{"text":"Av. Padre Cícero n.º 2555 Lojas 110, 111, 112, 113 e 114 - piso térreo - Triângulo , Fortaleza","title":"Cariri Shopping Center"}}{"scenarioId":262,"title":"LojasAmericanas","text":"Maracanaú Shopping Center","location":{"longitude":-38.543396,"latitude":-3.7183943},"userId":"2","type":"text","infobox":{"text":"Avenida Senador Carlos Jereissati n.º 100 - 1º piso - Jaçanau , Fortaleza","title":"Maracanaú Shopping Center"}}{"scenarioId":263,"title":"LojasAmericanas","text":"Quixadá","location":{"longitude":-38.543396,"latitude":-3.7183943},"userId":"2","type":"text","infobox":{"text":"Rua Epitácio Pessoa n.º 1250 , Fortaleza","title":"Quixadá"}}{"scenarioId":264,"title":"LojasAmericanas","text":"Sobral","location":{"longitude":-38.543396,"latitude":-3.7183943},"userId":"2","type":"text","infobox":{"text":"Rua Ernesto Deocleciano, 622 - Centro , Fortaleza","title":"Sobral"}}{"scenarioId":265,"title":"LojasAmericanas","text":"Tianguá","location":{"longitude":-38.52178,"latitude":-3.7305355},"userId":"2","type":"text","infobox":{"text":"Avenida Prefeito Jacques Nunes n.º 266 - Centro , Fortaleza","title":"Tianguá"}}{"scenarioId":266,"title":"LojasAmericanas","text":"505 Norte","location":{"longitude":-47.887203,"latitude":-15.757527},"userId":"2","type":"text","infobox":{"text":"SEP\/Norte Qd 505, S\/N Conj. D Lj 85 - Asa\/Norte , Brasília","title":"505 Norte"}}{"scenarioId":267,"title":"LojasAmericanas","text":"506 Sul","location":{"longitude":-47.906982,"latitude":-15.818483},"userId":"2","type":"text","infobox":{"text":"COM. Residencial Q 506 Bl. A Lj Térreo 15 - Asa\/Sul , Brasília","title":"506 Sul"}}{"scenarioId":268,"title":"LojasAmericanas","text":"Lago Sul","location":{"longitude":-47.86249,"latitude":-15.906436},"userId":"2","type":"text","infobox":{"text":"SHI\/Sul CL QI 17 Bl. H Lojas 113 a 116 - Lago Sul , Brasília","title":"Lago Sul"}}{"scenarioId":269,"title":"LojasAmericanas","text":"Sudoeste","location":{"longitude":-47.92917,"latitude":-15.7801485},"userId":"2","type":"text","infobox":{"text":"SH\/CLSW Bloco A Loja B 104 Parte - Sudoeste , Brasília","title":"Sudoeste"}}{"scenarioId":270,"title":"LojasAmericanas","text":"Águas Claras Sh Center","location":{"longitude":-47.92917,"latitude":-15.7801485},"userId":"2","type":"text","infobox":{"text":"Av das Araucárias, lotes 1835, 1905, 1955 e 2005 - Águas Claras , Brasília","title":"Águas Claras Sh Center"}}{"scenarioId":271,"title":"LojasAmericanas","text":"Brasília","location":{"longitude":-47.88718,"latitude":-15.797223},"userId":"2","type":"text","infobox":{"text":"SCS - Q4 Bl.A n° 11 - Asa Sul , Brasília","title":"Brasília"}}{"scenarioId":272,"title":"LojasAmericanas","text":"Brasília Shopping","location":{"longitude":-47.882103,"latitude":-15.788134},"userId":"2","type":"text","infobox":{"text":"SCN - Q5, BL A - Asa Norte , Brasília","title":"Brasília Shopping"}}{"scenarioId":273,"title":"LojasAmericanas","text":"Conjunto Nacional","location":{"longitude":-47.887203,"latitude":-15.757527},"userId":"2","type":"text","infobox":{"text":"Setor de Diversões Norte (SDN) - salão comercial nº S-132 - Asa Norte , Brasília","title":"Conjunto Nacional"}}{"scenarioId":274,"title":"LojasAmericanas","text":"Deck Norte","location":{"longitude":-47.891544,"latitude":-15.714637},"userId":"2","type":"text","infobox":{"text":"SHIN CA 01, Lote A, Bloco A Loja 22 - Lago Norte , Brasília","title":"Deck Norte"}}{"scenarioId":275,"title":"LojasAmericanas","text":"Park Shopping Brasilia","location":{"longitude":-47.955727,"latitude":-15.8179655},"userId":"2","type":"text","infobox":{"text":"Quadra A-1 nº 6580 Loja 214 - Guara I , Brasília","title":"Park Shopping Brasilia"}}{"scenarioId":276,"title":"LojasAmericanas","text":"Planaltina","location":{"longitude":-47.666668,"latitude":-15.616667},"userId":"2","type":"text","infobox":{"text":"SHD Projeção N - 1º andar - Planaltina , Brasília","title":"Planaltina"}}{"scenarioId":277,"title":"LojasAmericanas","text":"Recanto das Emas","location":{"longitude":-48.053673,"latitude":-15.907393},"userId":"2","type":"text","infobox":{"text":"Av Recanto das Emas, Quadra 103, Lotes 3 e 4, Loja 01 - Recanto das Emas , Brasília","title":"Recanto das Emas"}}{"scenarioId":278,"title":"LojasAmericanas","text":"Santa Maria","location":{"longitude":-47.872,"latitude":-15.971},"userId":"2","type":"text","infobox":{"text":"Setor Norte Comércio Local 114 - Lote D Salas 111 a 114 Santa Maria , Brasília","title":"Santa Maria"}}{"scenarioId":279,"title":"LojasAmericanas","text":"Sh. Pátio Brasil","location":{"longitude":-47.906982,"latitude":-15.818483},"userId":"2","type":"text","infobox":{"text":"Setor Comercial Sul, Qd 7, Bloco A3 - Asa Sul , Brasília","title":"Sh. Pátio Brasil"}}{"scenarioId":280,"title":"LojasAmericanas","text":"Shopping Center Terraço","location":{"longitude":-47.92917,"latitude":-15.7801485},"userId":"2","type":"text","infobox":{"text":"Setor de Habilitações Coletivas (SHC) - áreas octogonais - entrequadras 2\/8 - lote 05 - loja 1-SS , Brasília","title":"Shopping Center Terraço"}}{"scenarioId":281,"title":"LojasAmericanas","text":"Taguatinga Norte","location":{"longitude":-48.061085,"latitude":-15.821835},"userId":"2","type":"text","infobox":{"text":"CNB 12 Lote 10 Loja 01 - Taguatinga , Brasília","title":"Taguatinga Norte"}}{"scenarioId":282,"title":"LojasAmericanas","text":"Ceilândia","location":{"longitude":-48.061085,"latitude":-15.821835},"userId":"2","type":"text","infobox":{"text":"QNM 12, Via NM 12B - Lote 24 , Brasília","title":"Ceilândia"}}{"scenarioId":283,"title":"LojasAmericanas","text":"Centro Comercial Gama","location":{"longitude":-48.945312,"latitude":-16.36881},"userId":"2","type":"text","infobox":{"text":"SCC , lotes 01, 05 e 06 - Setor Central , Brasília","title":"Centro Comercial Gama"}}{"scenarioId":284,"title":"LojasAmericanas","text":"Samambaia","location":{"longitude":-48.06332,"latitude":-15.871482},"userId":"2","type":"text","infobox":{"text":"QN 318, conjunto 02, lote 01 - Samambaia do Sul , Brasília","title":"Samambaia"}}{"scenarioId":285,"title":"LojasAmericanas","text":"Shopping Center Sobradinho","location":{"longitude":-47.92917,"latitude":-15.7801485},"userId":"2","type":"text","infobox":{"text":"Setor urabano, quadra 14, área especial, lotes 3 e 4 , Brasília","title":"Shopping Center Sobradinho"}}{"scenarioId":286,"title":"LojasAmericanas","text":"Alameda Taguatinga","location":{"longitude":-48.05639,"latitude":-15.833333},"userId":"2","type":"text","infobox":{"text":"CSB -02, Lotes 01\/04 - Cidade de Taguatinga , Brasília","title":"Alameda Taguatinga"}}{"scenarioId":287,"title":"LojasAmericanas","text":"Taguatinga","location":{"longitude":-48.048115,"latitude":-15.849519},"userId":"2","type":"text","infobox":{"text":"CSA 1 - Lotes 02,03,04,16 e17 - Taguatinga Sul , Brasília","title":"Taguatinga"}}{"scenarioId":288,"title":"LojasAmericanas","text":"Taguatinga Shopping","location":{"longitude":-48.027344,"latitude":-15.85968},"userId":"2","type":"text","infobox":{"text":"QS 01, Rua 210, Lote 40 - Águas Claras , Brasília","title":"Taguatinga Shopping"}}{"scenarioId":289,"title":"LojasAmericanas","text":"Jardim Camburi","location":{"longitude":-40.269814,"latitude":-20.25642},"userId":"2","type":"text","infobox":{"text":"Rua Carlos Martins, 1160 - Jardim Camburi , Vitória","title":"Jardim Camburi"}}{"scenarioId":290,"title":"LojasAmericanas","text":"Praia do Canto","location":{"longitude":-40.297813,"latitude":-20.299335},"userId":"2","type":"text","infobox":{"text":"Rua Elesbão Linhares, 300 - Praia do Canto , Vitória","title":"Praia do Canto"}}{"scenarioId":291,"title":"LojasAmericanas","text":"Shopping Norte Sul","location":{"longitude":-40.297813,"latitude":-20.299335},"userId":"2","type":"text","infobox":{"text":"Avenida José Maria Vivacqua dos Santos n.º 400 , Vitória","title":"Shopping Norte Sul"}}{"scenarioId":292,"title":"LojasAmericanas","text":"Shopping Vitória","location":{"longitude":-40.289677,"latitude":-20.31308},"userId":"2","type":"text","infobox":{"text":"Av. Nossa Senhora dos navegantes, 1440 - Enseada do Suá , Vitória","title":"Shopping Vitória"}}{"scenarioId":293,"title":"LojasAmericanas","text":"Vitória","location":{"longitude":-40.330853,"latitude":-20.31932},"userId":"2","type":"text","infobox":{"text":"Rua Deputado Nelson Monteiro, 61 - Centro , Vitória","title":"Vitória"}}{"scenarioId":294,"title":"LojasAmericanas","text":"Shopping Sul","location":{"longitude":-40.330853,"latitude":-20.31932},"userId":"2","type":"text","infobox":{"text":"Av. Gov. Francisco Lacerda de Aguiar 138\/140 - Gilberto Aguiar , Vitória","title":"Shopping Sul"}}{"scenarioId":295,"title":"LojasAmericanas","text":"Cariacica","location":{"longitude":-40.36537,"latitude":-20.325174},"userId":"2","type":"text","infobox":{"text":"Av. Expedito Garcia,168 - Campo Grande , Vitória","title":"Cariacica"}}{"scenarioId":296,"title":"LojasAmericanas","text":"Guarapari","location":{"longitude":-40.36537,"latitude":-20.325174},"userId":"2","type":"text","infobox":{"text":"Rua Joaquim da Silva Lima nº 167, Centro , Vitória","title":"Guarapari"}}{"scenarioId":297,"title":"LojasAmericanas","text":"Linhares","location":{"longitude":-40.36537,"latitude":-20.325174},"userId":"2","type":"text","infobox":{"text":"Avenida Comendador Rafael n.º 1324, Quadra 71, Lotes 2 e 3 - Centro , Vitória","title":"Linhares"}}{"scenarioId":298,"title":"LojasAmericanas","text":"Shopping Center Pátio Mix Linhares (NOVA)","location":{"longitude":-40.36537,"latitude":-20.325174},"userId":"2","type":"text","infobox":{"text":"Avenida Cerejeiras n.º 300 \u0096 LUC n.º 1113 - Movelar , Vitória","title":"Shopping Center Pátio Mix Linhares (NOVA)"}}{"scenarioId":299,"title":"LojasAmericanas","text":"São Mateus","location":{"longitude":-40.36537,"latitude":-20.325174},"userId":"2","type":"text","infobox":{"text":"Avenida Jose Tozzi n.º 1821 - Centro , Vitória","title":"São Mateus"}}{"scenarioId":300,"title":"LojasAmericanas","text":"Carone Mall","location":{"longitude":-40.36537,"latitude":-20.325174},"userId":"2","type":"text","infobox":{"text":"Av. Eudes Scherrer de Souza nº 1996 - Colina de Laranjeiras , Vitória","title":"Carone Mall"}}{"scenarioId":301,"title":"LojasAmericanas","text":"Shopping Mestre Alvaro","location":{"longitude":-40.36537,"latitude":-20.325174},"userId":"2","type":"text","infobox":{"text":"Avenida João Palácios n.º 300 , Vitória","title":"Shopping Mestre Alvaro"}}{"scenarioId":302,"title":"LojasAmericanas","text":"Vila Velha","location":{"longitude":-40.36537,"latitude":-20.325174},"userId":"2","type":"text","infobox":{"text":"Avenida Carlos Lindenberg n.º 710 Loja 1 - 2º Pavimento - Glória , Vitória","title":"Vila Velha"}}{"scenarioId":303,"title":"LojasAmericanas","text":"Boulevard Shopping Vila Velha","location":{"longitude":-40.36537,"latitude":-20.325174},"userId":"2","type":"text","infobox":{"text":"Rodovia do Sol n.º 5000 \u0096 Loja 1058 - Jockey de Itaparica , Vitória","title":"Boulevard Shopping Vila Velha"}}{"scenarioId":304,"title":"LojasAmericanas","text":"Shopping Praia da Costa","location":{"longitude":-40.28952,"latitude":-20.341297},"userId":"2","type":"text","infobox":{"text":"Av. Carioca, 353 - Praia da Costa , Vitória","title":"Shopping Praia da Costa"}}{"scenarioId":305,"title":"LojasAmericanas","text":"Setor Bueno","location":{"longitude":-49.263046,"latitude":-16.658018},"userId":"2","type":"text","infobox":{"text":"R. T 61, 180 - Quadra 124 , Goiânia","title":"Setor Bueno"}}{"scenarioId":306,"title":"LojasAmericanas","text":"Setor Oeste","location":{"longitude":-49.26656,"latitude":-16.680367},"userId":"2","type":"text","infobox":{"text":"Av. República do Libano, 2576 - Setor Oeste , Goiânia","title":"Setor Oeste"}}{"scenarioId":307,"title":"LojasAmericanas","text":"24 de Outubro","location":{"longitude":-49.296036,"latitude":-16.667437},"userId":"2","type":"text","infobox":{"text":"Avenida 24 de Outubro, 934 - Campinas , Goiânia","title":"24 de Outubro"}}{"scenarioId":308,"title":"LojasAmericanas","text":"Flamboyant Shopping","location":{"longitude":-49.24026,"latitude":-16.704922},"userId":"2","type":"text","infobox":{"text":"Av. Deputado Jamel Cecílio, 3300 - Jardim Goiás , Goiânia","title":"Flamboyant Shopping"}}{"scenarioId":309,"title":"LojasAmericanas","text":"Goiânia","location":{"longitude":-49.28416,"latitude":-16.673643},"userId":"2","type":"text","infobox":{"text":"Av. Anhanguera, 5562 - Centro , Goiânia","title":"Goiânia"}}{"scenarioId":310,"title":"LojasAmericanas","text":"Portal Shopping","location":{"longitude":-49.32091,"latitude":-16.656984},"userId":"2","type":"text","infobox":{"text":"Av. Anhanguera s\/n.º, quadra 39-A\/B\/C, Lojas nºs. 238\/239, piso térreo - Capuava , Goiânia","title":"Portal Shopping"}}{"scenarioId":311,"title":"LojasAmericanas","text":"Portal Sul Shopping","location":{"longitude":-49.35643,"latitude":-16.77096},"userId":"2","type":"text","infobox":{"text":"Rodovia GO-040 - esquina com a Av. dos Ipês - Área Comercial nº 02, LUC 004 - Piso Térreo - Jardins Lisboa , Goiânia","title":"Portal Sul Shopping"}}{"scenarioId":312,"title":"LojasAmericanas","text":"Shopping Araguaia","location":{"longitude":-49.253593,"latitude":-16.714584},"userId":"2","type":"text","infobox":{"text":"Rua 44, 399 - Setor Central , Goiânia","title":"Shopping Araguaia"}}{"scenarioId":313,"title":"LojasAmericanas","text":"Shopping Cidade Jardim","location":{"longitude":-49.267628,"latitude":-16.677715},"userId":"2","type":"text","infobox":{"text":"Avenida Nero Macedo n.º 400 EUC n.º 300 - Setor Cidade Jardim , Goiânia","title":"Shopping Cidade Jardim"}}{"scenarioId":314,"title":"LojasAmericanas","text":"Shopping Águas Lindas","location":{"longitude":-49.267628,"latitude":-16.677715},"userId":"2","type":"text","infobox":{"text":"Quadra 0, Lote 6 A , s\/nº - Loja (LUC nº 29) - Mansões Centro Oeste , Goiânia","title":"Shopping Águas Lindas"}}{"scenarioId":315,"title":"LojasAmericanas","text":"Anápolis","location":{"longitude":-48.95654,"latitude":-16.324383},"userId":"2","type":"text","infobox":{"text":"Rua Engenheiro Portela nº 45 - Setor Central , Goiânia","title":"Anápolis"}}{"scenarioId":316,"title":"LojasAmericanas","text":"Anashopping","location":{"longitude":-49.240746,"latitude":-16.676018},"userId":"2","type":"text","infobox":{"text":"Avenida Universitária, 2221 - Vila Santa Isabel , Goiânia","title":"Anashopping"}}{"scenarioId":317,"title":"LojasAmericanas","text":"Brasil Park Shopping","location":{"longitude":-49.28985,"latitude":-16.65744},"userId":"2","type":"text","infobox":{"text":"Avenida Brasil n.º 505 Loja Âncora 02, Piso 1 - Vila Santana , Goiânia","title":"Brasil Park Shopping"}}{"scenarioId":318,"title":"LojasAmericanas","text":"Anhanguera","location":{"longitude":-49.267628,"latitude":-16.677715},"userId":"2","type":"text","infobox":{"text":"Avenida Anhanguera n.º 129\/131, Quadra 58 - Jardim Novo Mundo , Goiânia","title":"Anhanguera"}}{"scenarioId":319,"title":"LojasAmericanas","text":"Buriti Shopping","location":{"longitude":-49.28122,"latitude":-16.74444},"userId":"2","type":"text","infobox":{"text":"Av. Rio Verde, Q102 - Vila São Tomás , Goiânia","title":"Buriti Shopping"}}{"scenarioId":320,"title":"LojasAmericanas","text":"Caldas Novas","location":{"longitude":-49.28122,"latitude":-16.74444},"userId":"2","type":"text","infobox":{"text":"Avenida Coronel Bento Godoy, Qd 26, Lote 09 - Centro , Goiânia","title":"Caldas Novas"}}{"scenarioId":321,"title":"LojasAmericanas","text":"Catalão Shopping","location":{"longitude":-49.28122,"latitude":-16.74444},"userId":"2","type":"text","infobox":{"text":"Av. Jocelim Gomes Pires nº 2.300 - Nossa Senhora de Fátima , Goiânia","title":"Catalão Shopping"}}{"scenarioId":322,"title":"LojasAmericanas","text":"Paranaíba Shopping","location":{"longitude":-49.305695,"latitude":-16.670176},"userId":"2","type":"text","infobox":{"text":"Avenida Osvaldo Cruz n.º 120 - Setor Rodoviário , Goiânia","title":"Paranaíba Shopping"}}{"scenarioId":323,"title":"LojasAmericanas","text":"Shopping Jataí","location":{"longitude":-49.305695,"latitude":-16.670176},"userId":"2","type":"text","infobox":{"text":"Avenida Presidente Tancredo Neves n.º 100 \u0096 LUC ÂNCORA 02 - Setor Epaminondas II , Goiânia","title":"Shopping Jataí"}}{"scenarioId":324,"title":"LojasAmericanas","text":"Luziânia Shopping","location":{"longitude":-49.267628,"latitude":-16.677715},"userId":"2","type":"text","infobox":{"text":"Rua Ophir José Braz, Área Especial Central I - Loja de Uso Comercial (LUC nº 123) - Centro , Goiânia","title":"Luziânia Shopping"}}{"scenarioId":325,"title":"LojasAmericanas","text":"Nova Gama","location":{"longitude":-49.267628,"latitude":-16.677715},"userId":"2","type":"text","infobox":{"text":"Quadra 481 Lotes 2 e 4 - Pedregal , Goiânia","title":"Nova Gama"}}{"scenarioId":326,"title":"LojasAmericanas","text":"Planaltina de Goiás","location":{"longitude":-49.267628,"latitude":-16.677715},"userId":"2","type":"text","infobox":{"text":"Quadra 02 MC Lote 6 \/ Quadra 02 MR Lotes 6 e 7 - Setor Norte , Goiânia","title":"Planaltina de Goiás"}}{"scenarioId":327,"title":"LojasAmericanas","text":"Shopping Rio Verde","location":{"longitude":-49.267628,"latitude":-16.677715},"userId":"2","type":"text","infobox":{"text":"Rua Presidente Vargas n.º 1740 LUC 115 \u0096 Piso térreo - Jardim Goiás , Goiânia","title":"Shopping Rio Verde"}}{"scenarioId":328,"title":"LojasAmericanas","text":"Valparaíso Shopping","location":{"longitude":-49.267628,"latitude":-16.677715},"userId":"2","type":"text","infobox":{"text":"Quadra 01, Gleba F, LUC n.º 286 - Parque Esplanada III , Goiânia","title":"Valparaíso Shopping"}}{"scenarioId":329,"title":"LojasAmericanas","text":"Centro","location":{"longitude":-44.29693,"latitude":-2.5306914},"userId":"2","type":"text","infobox":{"text":"Rua Grande s\/n - Centro , São Luis","title":"Centro"}}{"scenarioId":330,"title":"LojasAmericanas","text":"Cohama","location":{"longitude":-44.249237,"latitude":-2.5228505},"userId":"2","type":"text","infobox":{"text":"Avenida Daniel de La Touche, 2000 - Cohama , São Luis","title":"Cohama"}}{"scenarioId":331,"title":"LojasAmericanas","text":"Rio Anil Shopping Center","location":{"longitude":-44.22622,"latitude":-2.5351493},"userId":"2","type":"text","infobox":{"text":"Av. São Luis Rei da França, 8 - Turu , São Luis","title":"Rio Anil Shopping Center"}}{"scenarioId":332,"title":"LojasAmericanas","text":"Shopping do Automóvel","location":{"longitude":-44.22622,"latitude":-2.5351493},"userId":"2","type":"text","infobox":{"text":"Av. dos Holandeses s\/nº - Calhau , São Luis","title":"Shopping do Automóvel"}}{"scenarioId":333,"title":"LojasAmericanas","text":"São Luiz Shopping Center","location":{"longitude":-44.22622,"latitude":-2.5351493},"userId":"2","type":"text","infobox":{"text":"Avenida Profº. Carlos Cunha n.º 1000 - Lojas nºs. 158 e 171 - Jaracati , São Luis","title":"São Luiz Shopping Center"}}{"scenarioId":334,"title":"LojasAmericanas","text":"Shopping Center Jaracati","location":{"longitude":-44.22622,"latitude":-2.5351493},"userId":"2","type":"text","infobox":{"text":"Avenida Professor Carlos Cunha N.º 3000 Loja n.º 47 - Jaracati , São Luis","title":"Shopping Center Jaracati"}}{"scenarioId":335,"title":"LojasAmericanas","text":"Bacabal","location":{"longitude":-44.22622,"latitude":-2.5351493},"userId":"2","type":"text","infobox":{"text":"Rua Getúlio Vargas n.º 324 - Centro , São Luis","title":"Bacabal"}}{"scenarioId":336,"title":"LojasAmericanas","text":"Caxias MA","location":{"longitude":-44.22622,"latitude":-2.5351493},"userId":"2","type":"text","infobox":{"text":"Praça Cândido Mendes n.º 348 - Centro , São Luis","title":"Caxias MA"}}{"scenarioId":337,"title":"LojasAmericanas","text":"Codó","location":{"longitude":-44.30355,"latitude":-2.5348308},"userId":"2","type":"text","infobox":{"text":"Rua Afonso Pena nº 481 - Centro , São Luis","title":"Codó"}}{"scenarioId":338,"title":"LojasAmericanas","text":"Shopping Imperatriz","location":{"longitude":-44.30355,"latitude":-2.5348308},"userId":"2","type":"text","infobox":{"text":"Rodovia BR-010 nº 100 \u0096 SUC F-110 , São Luis","title":"Shopping Imperatriz"}}{"scenarioId":339,"title":"LojasAmericanas","text":"Shopping Goiabeiras","location":{"longitude":-56.105858,"latitude":-15.579458},"userId":"2","type":"text","infobox":{"text":"Av. Lava-Pés, n.º 500 - SUC-2-8 Piso L2 - Duque de Caxias , Cuiabá","title":"Shopping Goiabeiras"}}{"scenarioId":340,"title":"LojasAmericanas","text":"Cuiabá CPA","location":{"longitude":-56.05148,"latitude":-15.556015},"userId":"2","type":"text","infobox":{"text":"Rua Professor Jornalista Amaro de Figueiredo Falcão n.º 520 - CPA I , Cuiabá","title":"Cuiabá CPA"}}{"scenarioId":341,"title":"LojasAmericanas","text":"Shopping Center 3 Américas","location":{"longitude":-56.094894,"latitude":-15.598917},"userId":"2","type":"text","infobox":{"text":"Avenida Brasília n.º 146 - Lojas 309\/363 B - 2º piso - Jardim das Américas , Cuiabá","title":"Shopping Center 3 Américas"}}{"scenarioId":342,"title":"LojasAmericanas","text":"Shopping Pantanal","location":{"longitude":-56.094894,"latitude":-15.598917},"userId":"2","type":"text","infobox":{"text":"Av. Rubens de Mendonça, 3.300 - Loja nº 01 (térreo) - Jardim Aclimação , Cuiabá","title":"Shopping Pantanal"}}{"scenarioId":343,"title":"LojasAmericanas","text":"Cuiabá","location":{"longitude":-56.096092,"latitude":-15.594298},"userId":"2","type":"text","infobox":{"text":"Rua Joaquim Murtinho n.º 196 - Centro Norte , Cuiabá","title":"Cuiabá"}}{"scenarioId":344,"title":"LojasAmericanas","text":"Rondonópolis Plaza Shopping","location":{"longitude":-56.094894,"latitude":-15.598917},"userId":"2","type":"text","infobox":{"text":"Rondon plaza Shopping Av. Julio Jose Campos, 325 - Sagrada Família , Cuiabá","title":"Rondonópolis Plaza Shopping"}}{"scenarioId":345,"title":"LojasAmericanas","text":"Rondonópolis","location":{"longitude":-56.094894,"latitude":-15.598917},"userId":"2","type":"text","infobox":{"text":"Avenida Marechal Rondon n.º 1.096 - Centro , Cuiabá","title":"Rondonópolis"}}{"scenarioId":346,"title":"LojasAmericanas","text":"Sinop","location":{"longitude":-56.094894,"latitude":-15.598917},"userId":"2","type":"text","infobox":{"text":"Avenida Governador Júlio Campos, 831 - Setor Comercial , Cuiabá","title":"Sinop"}}{"scenarioId":347,"title":"LojasAmericanas","text":"Park Shopping Sorriso","location":{"longitude":-56.094894,"latitude":-15.598917},"userId":"2","type":"text","infobox":{"text":"Avenida Tancredo Neves nº 543, sala 10, sala 11 - Âncora 4 e Âncora 5 - Centro , Cuiabá","title":"Park Shopping Sorriso"}}{"scenarioId":348,"title":"LojasAmericanas","text":"Tangará Shopping Center","location":{"longitude":-56.094894,"latitude":-15.598917},"userId":"2","type":"text","infobox":{"text":"Avenida Vereador Nilo Torres nº 751-W SUC nº 96 - Parque Leblon , Cuiabá","title":"Tangará Shopping Center"}}{"scenarioId":349,"title":"LojasAmericanas","text":"Várzea Grande","location":{"longitude":-56.138275,"latitude":-15.648057},"userId":"2","type":"text","infobox":{"text":"Avenida Couto Magalhães, 2056 - Centro , Cuiabá","title":"Várzea Grande"}}{"scenarioId":350,"title":"LojasAmericanas","text":"Campo Grande","location":{"longitude":-54.618988,"latitude":-20.460226},"userId":"2","type":"text","infobox":{"text":"Rua Marechal Rondon, 1336 - Centro , Campo Grande","title":"Campo Grande"}}{"scenarioId":351,"title":"LojasAmericanas","text":"Campo Grande XIV JULHO","location":{"longitude":-54.616913,"latitude":-20.46509},"userId":"2","type":"text","infobox":{"text":"R. Quatorze de Julho nº 1781 - Centro , Campo Grande","title":"Campo Grande XIV JULHO"}}{"scenarioId":352,"title":"LojasAmericanas","text":"Shopping Eldorado","location":{"longitude":-54.59419,"latitude":-20.460045},"userId":"2","type":"text","infobox":{"text":"Av. Afonso Pena, 4909 - Santa Fé , Campo Grande","title":"Shopping Eldorado"}}{"scenarioId":353,"title":"LojasAmericanas","text":"Shopping Avenida Center","location":{"longitude":-54.59419,"latitude":-20.460045},"userId":"2","type":"text","infobox":{"text":"Avenida Marcelino Pires, n.º 3600 - Cabeceira Alegre , Campo Grande","title":"Shopping Avenida Center"}}{"scenarioId":354,"title":"LojasAmericanas","text":"Belém","location":{"longitude":-48.49807,"latitude":-1.4491318},"userId":"2","type":"text","infobox":{"text":"Av. Presidente Vargas, 940\/6 - Centro , Belém","title":"Belém"}}{"scenarioId":355,"title":"LojasAmericanas","text":"Belém Cinema","location":{"longitude":-48.481224,"latitude":-1.454061},"userId":"2","type":"text","infobox":{"text":"Av. Nazaré nºs. 1175 e 1187 - Nazaré , Belém","title":"Belém Cinema"}}{"scenarioId":356,"title":"LojasAmericanas","text":"Boulevard Shopping Belém","location":{"longitude":-48.488895,"latitude":-1.4449971},"userId":"2","type":"text","infobox":{"text":"Av. Visconde de Souza Franco nº 776 - Reduto , Belém","title":"Boulevard Shopping Belém"}}{"scenarioId":357,"title":"LojasAmericanas","text":"IT Center","location":{"longitude":-48.476227,"latitude":-1.4136943},"userId":"2","type":"text","infobox":{"text":"Avenida Senador Lemos n.º 3153 Loja 269 no piso térreo - Sacramenta , Belém","title":"IT Center"}}{"scenarioId":358,"title":"LojasAmericanas","text":"Marambaia Open Mall","location":{"longitude":-48.483723,"latitude":-1.441302},"userId":"2","type":"text","infobox":{"text":"Av. Pedro Álvares Cabral nº 903 - Loja C (piso térreo e mezanino) - Umarizal , Belém","title":"Marambaia Open Mall"}}{"scenarioId":359,"title":"LojasAmericanas","text":"Parque Shopping Belém","location":{"longitude":-48.443596,"latitude":-1.3716209},"userId":"2","type":"text","infobox":{"text":"Rodovia Augusto Montenegro nº 4.300 - Loja 1000 , Belém","title":"Parque Shopping Belém"}}{"scenarioId":360,"title":"LojasAmericanas","text":"Pedreira","location":{"longitude":-48.50237,"latitude":-1.4550205},"userId":"2","type":"text","infobox":{"text":"Avenida Pedro Miranda n.º 1701 , Belém","title":"Pedreira"}}{"scenarioId":361,"title":"LojasAmericanas","text":"Shopping Iguatemi","location":{"longitude":-48.49565,"latitude":-1.4568535},"userId":"2","type":"text","infobox":{"text":"Travessa Padre Eutíquio, 1078 - Batista Campos , Belém","title":"Shopping Iguatemi"}}{"scenarioId":362,"title":"LojasAmericanas","text":"Market Plaza","location":{"longitude":-36.2135,"latitude":-9.511381},"userId":"2","type":"text","infobox":{"text":"Rodovia BR-316, KM 03 - Atalaia , Belém","title":"Market Plaza"}}{"scenarioId":363,"title":"LojasAmericanas","text":"Av. Portugal","location":{"longitude":-48.50357,"latitude":-1.453232},"userId":"2","type":"text","infobox":{"text":"Av. Portugal nº 213 - Campina , Belém","title":"Av. Portugal"}}{"scenarioId":364,"title":"LojasAmericanas","text":"Castanhal","location":{"longitude":-48.50237,"latitude":-1.4550205},"userId":"2","type":"text","infobox":{"text":"Rua Senador Antônio Lemos, 450 - Centro , Belém","title":"Castanhal"}}{"scenarioId":365,"title":"LojasAmericanas","text":"Unique Shopping Paraupebas","location":{"longitude":-48.482292,"latitude":-1.3921913},"userId":"2","type":"text","infobox":{"text":"Rodovia PA 275, loja 59 , Belém","title":"Unique Shopping Paraupebas"}}{"scenarioId":366,"title":"LojasAmericanas","text":"Duque de Caxias JP","location":{"longitude":-34.87621,"latitude":-7.120034},"userId":"2","type":"text","infobox":{"text":"Rua Duque de Caxias n.º 556 - Centro , João Pessoa","title":"Duque de Caxias JP"}}{"scenarioId":367,"title":"LojasAmericanas","text":"Tambiá Shopping","location":{"longitude":-34.880463,"latitude":-7.1152782},"userId":"2","type":"text","infobox":{"text":"Av. Deputado Odon Bezerra, 184 - Tambiá , João Pessoa","title":"Tambiá Shopping"}}{"scenarioId":368,"title":"LojasAmericanas","text":"Mag Shopping","location":{"longitude":-34.83438,"latitude":-7.097206},"userId":"2","type":"text","infobox":{"text":"Av. Gov. Flávio Ribeiro Coutinho, 115 - Manaíra , João Pessoa","title":"Mag Shopping"}}{"scenarioId":369,"title":"LojasAmericanas","text":"Manaíra Shopping","location":{"longitude":-34.84116,"latitude":-7.097653},"userId":"2","type":"text","infobox":{"text":"Av. Flavio Ribeiro Coutinho, 805 - Manaíra , João Pessoa","title":"Manaíra Shopping"}}{"scenarioId":370,"title":"LojasAmericanas","text":"Bayeux (NOVA)","location":{"longitude":-34.87621,"latitude":-7.120034},"userId":"2","type":"text","infobox":{"text":"Avenida Liberdade s\/ n.º - Terreno 3 - Centro , João Pessoa","title":"Bayeux (NOVA)"}}{"scenarioId":371,"title":"LojasAmericanas","text":"Shopping Cajazeiras","location":{"longitude":-34.87621,"latitude":-7.120034},"userId":"2","type":"text","infobox":{"text":"Avenida Comandante Vital Rolim n.º 989 \/ Loja 01 - Centro , João Pessoa","title":"Shopping Cajazeiras"}}{"scenarioId":372,"title":"LojasAmericanas","text":"Campina Grande","location":{"longitude":-34.87621,"latitude":-7.120034},"userId":"2","type":"text","infobox":{"text":"Rua João Pessoa n.º 381 - Centro , João Pessoa","title":"Campina Grande"}}{"scenarioId":373,"title":"LojasAmericanas","text":"Sh Iguatemi C. Grande","location":{"longitude":-34.86105,"latitude":-7.11532},"userId":"2","type":"text","infobox":{"text":"Av. Severino Bezerra Cabral, n.º 1190 - Loja 143 - piso térreo - Catolé , João Pessoa","title":"Sh Iguatemi C. Grande"}}{"scenarioId":374,"title":"LojasAmericanas","text":"Shopping Guarabira","location":{"longitude":-34.86105,"latitude":-7.11532},"userId":"2","type":"text","infobox":{"text":"Avenida Rui Barbosa n.º 1.300 , João Pessoa","title":"Shopping Guarabira"}}{"scenarioId":375,"title":"LojasAmericanas","text":"Patos","location":{"longitude":-34.87621,"latitude":-7.120034},"userId":"2","type":"text","infobox":{"text":"Rua Leôncio Wanderley s\/nº - antiga Rua do Cruzeiro - Centro , João Pessoa","title":"Patos"}}{"scenarioId":376,"title":"LojasAmericanas","text":"Boqueirão","location":{"longitude":-49.238533,"latitude":-25.541988},"userId":"2","type":"text","infobox":{"text":"Rua Maestro Carlos Frank n.º 1351 - Alto Boqueirão , Curitiba","title":"Boqueirão"}}{"scenarioId":377,"title":"LojasAmericanas","text":"Batel","location":{"longitude":-49.280186,"latitude":-25.439455},"userId":"2","type":"text","infobox":{"text":"Rua Buenos Aires, 205 - Batel , Curitiba","title":"Batel"}}{"scenarioId":378,"title":"LojasAmericanas","text":"Champagnat","location":{"longitude":-49.294617,"latitude":-25.429579},"userId":"2","type":"text","infobox":{"text":"Rua Padre Agostinho, 1.568 - Bigorrilho , Curitiba","title":"Champagnat"}}{"scenarioId":379,"title":"LojasAmericanas","text":"Chile","location":{"longitude":-49.26969,"latitude":-25.452545},"userId":"2","type":"text","infobox":{"text":"Rua Lamenha Lins, 1.898 - Rebouças , Curitiba","title":"Chile"}}{"scenarioId":380,"title":"LojasAmericanas","text":"Juvevê","location":{"longitude":-49.259575,"latitude":-25.41358},"userId":"2","type":"text","infobox":{"text":"Rua Rocha Pombo, 600 - Juvevê , Curitiba","title":"Juvevê"}}{"scenarioId":381,"title":"LojasAmericanas","text":"Portão","location":{"longitude":-49.29537,"latitude":-25.467615},"userId":"2","type":"text","infobox":{"text":"Rua Francisco Frischmann, 2.597 - Portão , Curitiba","title":"Portão"}}{"scenarioId":382,"title":"LojasAmericanas","text":"Churchill","location":{"longitude":-49.299355,"latitude":-25.50365},"userId":"2","type":"text","infobox":{"text":"Avenida Winston Churchill n.º 2567 - Capão Raso , Curitiba","title":"Churchill"}}{"scenarioId":383,"title":"LojasAmericanas","text":"Shopping Palladium","location":{"longitude":-49.289482,"latitude":-25.477983},"userId":"2","type":"text","infobox":{"text":"Rua Eduardo Carlos Pereira nº 3604 - Portão , Curitiba","title":"Shopping Palladium"}}{"scenarioId":384,"title":"LojasAmericanas","text":"Curitiba","location":{"longitude":-49.273857,"latitude":-25.431463},"userId":"2","type":"text","infobox":{"text":"Rua Ebano Pereira, 67 - Centro , Curitiba","title":"Curitiba"}}{"scenarioId":385,"title":"LojasAmericanas","text":"Edifício Montreal Executive Center","location":{"longitude":-49.27147,"latitude":-25.43317},"userId":"2","type":"text","infobox":{"text":"Avenida Marechal Floriano Peixoto n.º 306 - Centro , Curitiba","title":"Edifício Montreal Executive Center"}}{"scenarioId":386,"title":"LojasAmericanas","text":"Shopping Curitiba","location":{"longitude":-49.287945,"latitude":-25.44234},