{"scenarioId":11,"title":"Trindas House Bed & Breakfast","text":"","userId":27,"loc":{"type":"Point","accuracy":5.0,"coordinates":[-43.50291939878197, -22.999459517539584]},"type":"text","infobox":{"schedule":"","text":" R dos Bandeirantes, 24081 201 - Vargem Grande Rio de Janeiro - RJ","homepage":""}}
{"scenarioId":11,"title":"Pousada dos Bandeirantes","text":"","userId":27,"loc":{"type":"Point","accuracy":5.0,"coordinates":[-43.430264466666664, -22.985098307070707]},"type":"text","infobox":{"schedule":"","text":" Estr dos Bandeirantes, 8637 - Casa 16 - Jacarepagua Rio de Janeiro - RJ","homepage":""}}
{"scenarioId":11,"title":"Hotel Novo Mundo","text":"","userId":27,"loc":{"type":"Point","accuracy":5.0,"coordinates":[-43.172963, -22.925002]},"type":"text","infobox":{"schedule":"","text":" Praia do Flamengo, 20 Rio de Janeiro - RJ","homepage":""}}
{"scenarioId":11,"title":"Rio Roiss Hotel","text":"","userId":27,"loc":{"type":"Point","accuracy":5.0,"coordinates":[-43.189562, -22.977599]},"type":"text","infobox":{"schedule":"","text":" Rua Aires Saldanha, 48 Rio de Janeiro - RJ","homepage":""}}
{"scenarioId":11,"title":"Hotel South American Copacabana","text":"","userId":27,"loc":{"type":"Point","accuracy":5.0,"coordinates":[-43.1929985, -22.9834679]},"type":"text","infobox":{"schedule":"","text":" Rua Francisco Sá, 90 - Copacabana Rio de Janeiro - RJ","homepage":""}}
{"scenarioId":11,"title":"Promenade The Claridge Residence Service","text":"","userId":27,"loc":{"type":"Point","accuracy":5.0,"coordinates":[-43.2270449, -22.9841398]},"type":"text","infobox":{"schedule":"","text":" Rua Rainha Guilhermina, 156 - Leblon Rio de Janeiro - RJ","homepage":""}}
{"scenarioId":11,"title":"Promenade Leblon Inn Residence Service","text":"","userId":27,"loc":{"type":"Point","accuracy":5.0,"coordinates":[-43.228484, -22.985697]},"type":"text","infobox":{"schedule":"","text":" R Dias Ferreira, 15 - Leblon Rio de Janeiro - RJ","homepage":""}}
{"scenarioId":11,"title":"Rios Nice Hotel","text":"","userId":27,"loc":{"type":"Point","accuracy":5.0,"coordinates":[-43.186913, -22.9149025]},"type":"text","infobox":{"schedule":"","text":" Rua do Riachuelo, 201 Rio de Janeiro - RJ","homepage":""}}
{"scenarioId":11,"title":"Premier Copacabana Hotel","text":"","userId":27,"loc":{"type":"Point","accuracy":5.0,"coordinates":[-43.187039, -22.967564]},"type":"text","infobox":{"schedule":"","text":" Rua Tonelero, 205 Rio de Janeiro - RJ","homepage":""}}
{"scenarioId":11,"title":"Leblon: Marina All Suites - Hotel","text":"","userId":27,"loc":{"type":"Point","accuracy":5.0,"coordinates":[-43.222871, -22.987056]},"type":"text","infobox":{"schedule":"","text":" Av. Delfim Moreira, 696 Rio de Janeiro - RJ","homepage":""}}
{"scenarioId":11,"title":"Golden Tulip Ipanema Plaza","text":"","userId":27,"loc":{"type":"Point","accuracy":5.0,"coordinates":[-43.200839, -22.986078]},"type":"text","infobox":{"schedule":"","text":" Rua Farme de Amoedo, 34 Rio de Janeiro - RJ","homepage":""}}
{"scenarioId":11,"title":"Royalty Barra Hotel","text":"","userId":27,"loc":{"type":"Point","accuracy":5.0,"coordinates":[-43.3051, -23.0150046]},"type":"text","infobox":{"schedule":"","text":" Av. do Pepê, 690 Rio de Janeiro - RJ","homepage":""}}
{"scenarioId":11,"title":"Jw Marriott Hotel Rio de Janeiro","text":"","userId":27,"loc":{"type":"Point","accuracy":5.0,"coordinates":[-43.185291, -22.972342]},"type":"text","infobox":{"schedule":"","text":" Av. Atlântica, 2600 - Copacabana Rio de Janeiro - RJ","homepage":""}}
{"scenarioId":11,"title":"Promenade Visconti Residence Service","text":"","userId":27,"loc":{"type":"Point","accuracy":5.0,"coordinates":[-43.206118, -22.985226]},"type":"text","infobox":{"schedule":"","text":" R Prudente de Morais, 1050 - Ipanema Rio de Janeiro - RJ","homepage":""}}
{"scenarioId":11,"title":"Hotel Vilamar Copacabana","text":"","userId":27,"loc":{"type":"Point","accuracy":5.0,"coordinates":[-43.190516, -22.975787]},"type":"text","infobox":{"schedule":"","text":" R Bolivar, 75 - Copacabana Rio de Janeiro - RJ","homepage":""}}
{"scenarioId":11,"title":"Hotel Ipanema Inn","text":"","userId":27,"loc":{"type":"Point","accuracy":5.0,"coordinates":[-43.207193, -22.985732]},"type":"text","infobox":{"schedule":"","text":" Rua Maria Quitéria, 27 Rio de Janeiro - RJ","homepage":""}}
{"scenarioId":11,"title":"Luxor Hotel Copacabana","text":"","userId":27,"loc":{"type":"Point","accuracy":5.0,"coordinates":[-43.185291, -22.972342]},"type":"text","infobox":{"schedule":"","text":" Av Atlântica, 2554 - Copacabana Rio de Janeiro - RJ","homepage":""}}
{"scenarioId":11,"title":"Luxor Hotel Continental","text":"","userId":27,"loc":{"type":"Point","accuracy":5.0,"coordinates":[-43.169163, -22.962503]},"type":"text","infobox":{"schedule":"","text":" R Gustavo Sampaio, 320 - Leme Rio de Janeiro - RJ","homepage":""}}
{"scenarioId":11,"title":"Majestic Rio Palace Hotel","text":"","userId":27,"loc":{"type":"Point","accuracy":5.0,"coordinates":[-43.190301, -22.971071]},"type":"text","infobox":{"schedule":"","text":" Rua 5 de Julho, 195 Rio de Janeiro - RJ","homepage":""}}
{"scenarioId":11,"title":"Mengo Palace Hotel - Flamengo","text":"","userId":27,"loc":{"type":"Point","accuracy":5.0,"coordinates":[-43.175395, -22.927952]},"type":"text","infobox":{"schedule":"","text":" Rua Correia Dutra, 31 - Flamengo Rio de Janeiro - RJ","homepage":""}}
{"scenarioId":11,"title":"Marina All Suítes","text":"","userId":27,"loc":{"type":"Point","accuracy":5.0,"coordinates":[-43.222871, -22.987056]},"type":"text","infobox":{"schedule":"","text":" Av. Delfim Moreira, 696 Rio de Janeiro - RJ","homepage":""}}
{"scenarioId":11,"title":"Windsor Miramar Palace Hotel","text":"","userId":27,"loc":{"type":"Point","accuracy":5.0,"coordinates":[-43.18986, -22.981305]},"type":"text","infobox":{"schedule":"","text":" Av. Atlântica, 3668 - Copacabana Rio de Janeiro - RJ","homepage":""}}
{"scenarioId":11,"title":"Merlin Copacabana Hotel","text":"","userId":27,"loc":{"type":"Point","accuracy":5.0,"coordinates":[-43.175259, -22.961387]},"type":"text","infobox":{"schedule":"","text":" Av. Princesa Isabel, 392 Rio de Janeiro - RJ","homepage":""}}
{"scenarioId":11,"title":"Monsieur Le Blond Apart Hotel","text":"","userId":27,"loc":{"type":"Point","accuracy":5.0,"coordinates":[-43.22353, -22.982785]},"type":"text","infobox":{"schedule":"","text":" Av Bartolomeu Mitre, 455 - Leblon Rio de Janeiro - RJ","homepage":""}}
{"scenarioId":11,"title":"Aeroporto Othon Travel","text":"","userId":27,"loc":{"type":"Point","accuracy":5.0,"coordinates":[-43.171271, -22.910817]},"type":"text","infobox":{"schedule":"","text":" Av. Beira Mar, 280 Rio de Janeiro - RJ","homepage":""}}
{"scenarioId":11,"title":"Lancaster Othon Travel","text":"","userId":27,"loc":{"type":"Point","accuracy":5.0,"coordinates":[-43.176911, -22.966554]},"type":"text","infobox":{"schedule":"","text":" Av. Atlântica, 1470 Rio de Janeiro - RJ","homepage":""}}
{"scenarioId":11,"title":"Provence Golden Park Rio","text":"","userId":27,"loc":{"type":"Point","accuracy":5.0,"coordinates":[-43.173975, -22.92229]},"type":"text","infobox":{"schedule":"","text":" R do Russel, 374 - Glória Rio de Janeiro - RJ","homepage":""}}
{"scenarioId":11,"title":"Windsor Guanabara Palace Hotel","text":"","userId":27,"loc":{"type":"Point","accuracy":5.0,"coordinates":[-43.1911057, -22.9050276]},"type":"text","infobox":{"schedule":"","text":" Av Presidente Vargas, 392 - Centro Rio de Janeiro - RJ","homepage":""}}
{"scenarioId":11,"title":"Hotel Granada","text":"","userId":27,"loc":{"type":"Point","accuracy":5.0,"coordinates":[-43.183657, -22.911269]},"type":"text","infobox":{"schedule":"","text":" Av. Gomes Freire, 530 Rio de Janeiro - RJ","homepage":""}}
{"scenarioId":11,"title":"Intercontinental Rio","text":"","userId":27,"loc":{"type":"Point","accuracy":5.0,"coordinates":[-43.25692, -22.998557]},"type":"text","infobox":{"schedule":"","text":" Av Pref Mendes de Morais, 222 - Vidigal Rio de Janeiro - RJ","homepage":""}}
{"scenarioId":11,"title":"Hotel Marina Palace","text":"","userId":27,"loc":{"type":"Point","accuracy":5.0,"coordinates":[-43.222109, -22.986927]},"type":"text","infobox":{"schedule":"","text":" Av. Delfim Moreira, 630 Rio de Janeiro - RJ","homepage":""}}
{"scenarioId":11,"title":"Ibiza Copacabana Hotel","text":"","userId":27,"loc":{"type":"Point","accuracy":5.0,"coordinates":[-43.17622, -22.96382]},"type":"text","infobox":{"schedule":"","text":" Rua Belford Roxo, 61 Rio de Janeiro - RJ","homepage":""}}
{"scenarioId":11,"title":"Pestana Rio Atlantica","text":"","userId":27,"loc":{"type":"Point","accuracy":5.0,"coordinates":[-43.187827, -22.975739]},"type":"text","infobox":{"schedule":"","text":" Av. Atlântica, 2964 - Copacabana Rio de Janeiro - RJ","homepage":""}}
{"scenarioId":11,"title":"Arcos Rio Palace Hotel","text":"","userId":27,"loc":{"type":"Point","accuracy":5.0,"coordinates":[-43.1839, -22.9127]},"type":"text","infobox":{"schedule":"","text":" Av. Mem de Sá, 117 - Lapa Rio de Janeiro - RJ","homepage":""}}
{"scenarioId":11,"title":"California Othon","text":"","userId":27,"loc":{"type":"Point","accuracy":5.0,"coordinates":[-43.185291, -22.972342]},"type":"text","infobox":{"schedule":"","text":" Av. Atlântica, 2616 Rio de Janeiro - RJ","homepage":""}}
{"scenarioId":11,"title":"Royalty Copacabana","text":"","userId":27,"loc":{"type":"Point","accuracy":5.0,"coordinates":[-43.184754, -22.966428]},"type":"text","infobox":{"schedule":"","text":" Rua Tonelero, 154 Rio de Janeiro - RJ","homepage":""}}
{"scenarioId":11,"title":"Excelsior Copacabana","text":"","userId":27,"loc":{"type":"Point","accuracy":5.0,"coordinates":[-43.179918, -22.968237]},"type":"text","infobox":{"schedule":"","text":" Av. Atlântica, 1800 - Copacabana Rio de Janeiro - RJ","homepage":""}}
{"scenarioId":11,"title":"Hotel Ok","text":"","userId":27,"loc":{"type":"Point","accuracy":5.0,"coordinates":[-43.176792, -22.911471]},"type":"text","infobox":{"schedule":"","text":" Rua Senador Dantas, 24 Rio de Janeiro - RJ","homepage":""}}
{"scenarioId":11,"title":"Copacabana: Bandeirantes - Hotel","text":"","userId":27,"loc":{"type":"Point","accuracy":5.0,"coordinates":[-43.188932, -22.970897]},"type":"text","infobox":{"schedule":"","text":" R. Barata Ribeiro, 548 Rio de Janeiro - RJ","homepage":""}}
{"scenarioId":11,"title":"Everest Park Hotel","text":"","userId":27,"loc":{"type":"Point","accuracy":5.0,"coordinates":[-43.207193, -22.985732]},"type":"text","infobox":{"schedule":"","text":" R Maria Quitéria, 19 - Ipanema Rio de Janeiro - RJ","homepage":""}}
{"scenarioId":11,"title":"Ducasse Rio Hotel","text":"","userId":27,"loc":{"type":"Point","accuracy":5.0,"coordinates":[-43.191925, -22.980997]},"type":"text","infobox":{"schedule":"","text":" Rua Sá Ferreira, 76 Rio de Janeiro - RJ","homepage":""}}
{"scenarioId":11,"title":"Magic Palace Hotel","text":"","userId":27,"loc":{"type":"Point","accuracy":5.0,"coordinates":[-43.1773915, -22.9218943]},"type":"text","infobox":{"schedule":"","text":" Rua Santo Amaro, 11 Rio de Janeiro - RJ","homepage":""}}
{"scenarioId":11,"title":"Astoria Palace","text":"","userId":27,"loc":{"type":"Point","accuracy":5.0,"coordinates":[-43.180233, -22.968431]},"type":"text","infobox":{"schedule":"","text":" Av. Atlântica, 1866 Rio de Janeiro - RJ","homepage":""}}
{"scenarioId":11,"title":"Clube Costa Brava - Joá","text":"","userId":27,"loc":{"type":"Point","accuracy":5.0,"coordinates":[-43.287558, -23.014127]},"type":"text","infobox":{"schedule":"","text":" R Srg José da Silva, 3621 - Joá Rio de Janeiro - RJ","homepage":""}}
{"scenarioId":11,"title":"Snob Hotel","text":"","userId":27,"loc":{"type":"Point","accuracy":5.0,"coordinates":[-43.1909853, -22.912799]},"type":"text","infobox":{"schedule":"","text":" Av. Henrique Valadares., 150 Rio de Janeiro - RJ","homepage":""}}
{"scenarioId":11,"title":"Hotel La Costa","text":"","userId":27,"loc":{"type":"Point","accuracy":5.0,"coordinates":[-43.1824175, -22.9146233]},"type":"text","infobox":{"schedule":"","text":" Rua Francisco Muratori, 13 Rio de Janeiro - RJ","homepage":""}}
{"scenarioId":11,"title":"Flat Leblon I","text":"","userId":27,"loc":{"type":"Point","accuracy":5.0,"coordinates":[-43.2225782, -22.9802646]},"type":"text","infobox":{"schedule":"","text":" Rua Adalberto Ferreira, 46 Rio de Janeiro - RJ","homepage":""}}
{"scenarioId":11,"title":"Hotel Champagne","text":"","userId":27,"loc":{"type":"Point","accuracy":5.0,"coordinates":[-43.1892888548896, -22.9105124066246]},"type":"text","infobox":{"schedule":"","text":" Rua do Senado, 274 Rio de Janeiro - RJ","homepage":""}}
{"scenarioId":11,"title":"Hotel Caesar Business Rio de Janeiro","text":"","userId":27,"loc":{"type":"Point","accuracy":5.0,"coordinates":[-43.182148, -22.952118]},"type":"text","infobox":{"schedule":"","text":" R da Passagem, 35 - Botafogo Rio de Janeiro - RJ","homepage":""}}
{"scenarioId":11,"title":"Castelinho 38 Pousada","text":"","userId":27,"loc":{"type":"Point","accuracy":5.0,"coordinates":[-43.186655, -22.920128]},"type":"text","infobox":{"schedule":"","text":" Rua Triunfo, 38 - Santa Teresa Rio de Janeiro - RJ","homepage":""}}
{"scenarioId":11,"title":"Hotel Marbella - Barra da Tijuca","text":"","userId":27,"loc":{"type":"Point","accuracy":5.0,"coordinates":[-43.300333, -23.0089]},"type":"text","infobox":{"schedule":"","text":" Estrada da Barra da Tijuca, 431 - Barra da Tijuca Rio de Janeiro - RJ","homepage":""}}
{"scenarioId":11,"title":"Champagne Hotel","text":"","userId":27,"loc":{"type":"Point","accuracy":5.0,"coordinates":[-43.190936, -22.911173]},"type":"text","infobox":{"schedule":"","text":" R. do Senado, 274 - Centro Rio de Janeiro - RJ","homepage":""}}
{"scenarioId":11,"title":"Hotel Paraguai","text":"","userId":27,"loc":{"type":"Point","accuracy":5.0,"coordinates":[-43.189758, -22.910721]},"type":"text","infobox":{"schedule":"","text":" R do Senado, 242 - Centro Rio de Janeiro - RJ","homepage":""}}
{"scenarioId":11,"title":"Saionara Hotel","text":"","userId":27,"loc":{"type":"Point","accuracy":5.0,"coordinates":[-43.213538, -22.911724]},"type":"text","infobox":{"schedule":"","text":" R. do Matoso, 11 - Praça da Bandeira Rio de Janeiro - RJ","homepage":""}}
{"scenarioId":11,"title":"Hotel Vilamar Copacabana","text":"","userId":27,"loc":{"type":"Point","accuracy":5.0,"coordinates":[-43.190516, -22.975787]},"type":"text","infobox":{"schedule":"","text":" R Bolivar, 75 - Copacabana Rio de Janeiro - RJ","homepage":""}}
{"scenarioId":11,"title":"Califórnia Othon Classic","text":"","userId":27,"loc":{"type":"Point","accuracy":5.0,"coordinates":[-43.185291, -22.972342]},"type":"text","infobox":{"schedule":"","text":" Av. Atlântica, 2616 Rio de Janeiro - RJ","homepage":""}}
{"scenarioId":11,"title":"Savoy Othon Travel","text":"","userId":27,"loc":{"type":"Point","accuracy":5.0,"coordinates":[-43.190517, -22.977371]},"type":"text","infobox":{"schedule":"","text":" Av. Nossa Senhora de Copacabana, 995 Rio de Janeiro - RJ","homepage":""}}
{"scenarioId":11,"title":"Mar Ipanema Hotel","text":"","userId":27,"loc":{"type":"Point","accuracy":5.0,"coordinates":[-43.2113211, -22.9838606]},"type":"text","infobox":{"schedule":"","text":" R. Vsc , de Pirajá, 539 - Ipanema Rio de Janeiro - RJ","homepage":""}}
{"scenarioId":11,"title":"Portinari Design Hotel","text":"","userId":27,"loc":{"type":"Point","accuracy":5.0,"coordinates":[-43.190417, -22.982811]},"type":"text","infobox":{"schedule":"","text":" Rua Francisco Sá, 17 Rio de Janeiro - RJ","homepage":""}}
{"scenarioId":11,"title":"Hotel Pouso Real","text":"","userId":27,"loc":{"type":"Point","accuracy":5.0,"coordinates":[-43.183896, -22.91238]},"type":"text","infobox":{"schedule":"","text":" R do Rezende, 35 - Centro Rio de Janeiro - RJ","homepage":""}}
{"scenarioId":11,"title":"Atlantis Copacabana Hotel","text":"","userId":27,"loc":{"type":"Point","accuracy":5.0,"coordinates":[-43.192052, -22.986557]},"type":"text","infobox":{"schedule":"","text":" R Bulhões Carvalho, 61 - Copacabana Rio de Janeiro - RJ","homepage":""}}
{"scenarioId":11,"title":"Royalty Copacabana Hotel","text":"","userId":27,"loc":{"type":"Point","accuracy":5.0,"coordinates":[-43.184754, -22.966428]},"type":"text","infobox":{"schedule":"","text":" Rua Tonelero, 154 Rio de Janeiro - RJ","homepage":""}}
{"scenarioId":11,"title":"Augusto's Copacabana Hotel","text":"","userId":27,"loc":{"type":"Point","accuracy":5.0,"coordinates":[-43.191675, -22.975703]},"type":"text","infobox":{"schedule":"","text":" Rua Bolivar, 119 Rio de Janeiro - RJ","homepage":""}}
{"scenarioId":11,"title":"Real Palace Hotel","text":"","userId":27,"loc":{"type":"Point","accuracy":5.0,"coordinates":[-43.178231, -22.964973]},"type":"text","infobox":{"schedule":"","text":" Rua Duvivier, 70 Rio de Janeiro - RJ","homepage":""}}
{"scenarioId":11,"title":"Hotel Astoria Palace","text":"","userId":27,"loc":{"type":"Point","accuracy":5.0,"coordinates":[-43.180233, -22.968431]},"type":"text","infobox":{"schedule":"","text":" Av. Atlântica, 1866 Rio de Janeiro - RJ","homepage":""}}
{"scenarioId":11,"title":"Mirador Rio Hotel","text":"","userId":27,"loc":{"type":"Point","accuracy":5.0,"coordinates":[-43.189101, -22.968735]},"type":"text","infobox":{"schedule":"","text":" Rua Tonelero, 338 Rio de Janeiro - RJ","homepage":""}}
{"scenarioId":11,"title":"Windsor Asturias","text":"","userId":27,"loc":{"type":"Point","accuracy":5.0,"coordinates":[-43.176505, -22.911921]},"type":"text","infobox":{"schedule":"","text":" Rua Senador Dantas, 14 Rio de Janeiro - RJ","homepage":""}}
{"scenarioId":11,"title":"Casa Del Mar Hotel","text":"","userId":27,"loc":{"type":"Point","accuracy":5.0,"coordinates":[-43.45249414, -23.02375664]},"type":"text","infobox":{"schedule":"","text":" Av. Sernambetiba, 5740 Rio de Janeiro - RJ","homepage":""}}
{"scenarioId":11,"title":"Bourbon Residence Barra","text":"","userId":27,"loc":{"type":"Point","accuracy":5.0,"coordinates":[-43.39541, -23.00152]},"type":"text","infobox":{"schedule":"","text":" Av Malibu, s\/n - Barra da Tijuca Rio de Janeiro - RJ","homepage":""}}
{"scenarioId":11,"title":"Villa Rica Hotel","text":"","userId":27,"loc":{"type":"Point","accuracy":5.0,"coordinates":[-43.177979, -22.91641]},"type":"text","infobox":{"schedule":"","text":" Rua Conde de Lages, 2 - Santa Teresa Rio de Janeiro - RJ","homepage":""}}
{"scenarioId":11,"title":"Copa Sul Hotel","text":"","userId":27,"loc":{"type":"Point","accuracy":5.0,"coordinates":[-43.19082, -22.983224]},"type":"text","infobox":{"schedule":"","text":" Av. Nossa Senhora Copacabana, 1284 - Copacabana Rio de Janeiro - RJ","homepage":""}}
{"scenarioId":11,"title":"Copacabana Rio Hotel","text":"","userId":27,"loc":{"type":"Point","accuracy":5.0,"coordinates":[-43.19096, -22.982597]},"type":"text","infobox":{"schedule":"","text":" Av. Ns. de Copacabana, 1256 - Copacabana Rio de Janeiro - RJ","homepage":""}}
{"scenarioId":11,"title":"Savoy Othon Travel","text":"","userId":27,"loc":{"type":"Point","accuracy":5.0,"coordinates":[-43.190517, -22.977371]},"type":"text","infobox":{"schedule":"","text":" Av. Nossa Senhora de Copacabana, 995 Rio de Janeiro - RJ","homepage":""}}
{"scenarioId":11,"title":"Rio Othon Palace","text":"","userId":27,"loc":{"type":"Point","accuracy":5.0,"coordinates":[-43.188854, -22.977742]},"type":"text","infobox":{"schedule":"","text":" Av. Atlântica, 3264 Rio de Janeiro - RJ","homepage":""}}
{"scenarioId":11,"title":"Barra: Gaivota - Hotel","text":"","userId":27,"loc":{"type":"Point","accuracy":5.0,"coordinates":[-43.308265, -23.012179]},"type":"text","infobox":{"schedule":"","text":" Av Belisário Leite D Andrade Neto, 406 - Barra da Tijuca Rio de Janeiro - RJ","homepage":""}}
{"scenarioId":11,"title":"Acapulco Copacabana Hotel","text":"","userId":27,"loc":{"type":"Point","accuracy":5.0,"coordinates":[-43.173125, -22.964104]},"type":"text","infobox":{"schedule":"","text":" Rua Gustavo Sampaio, 854 Rio de Janeiro - RJ","homepage":""}}
{"scenarioId":11,"title":"Hotel Debret","text":"","userId":27,"loc":{"type":"Point","accuracy":5.0,"coordinates":[-43.189669, -22.980308]},"type":"text","infobox":{"schedule":"","text":" Av. Atlântica, 3564 Rio de Janeiro - RJ","homepage":""}}
{"scenarioId":11,"title":"Atlântico Flat Service","text":"","userId":27,"loc":{"type":"Point","accuracy":5.0,"coordinates":[-43.186221, -22.97257]},"type":"text","infobox":{"schedule":"","text":" R Sta Clara, 15 - Copacabana Rio de Janeiro - RJ","homepage":""}}
{"scenarioId":11,"title":"Hotel Arpoador Inn","text":"","userId":27,"loc":{"type":"Point","accuracy":5.0,"coordinates":[-43.194166, -22.987715]},"type":"text","infobox":{"schedule":"","text":" Rua Francisco Otaviano, 177 Rio de Janeiro - RJ","homepage":""}}
{"scenarioId":11,"title":"Majestic Rio Palace","text":"","userId":27,"loc":{"type":"Point","accuracy":5.0,"coordinates":[-43.190301, -22.971071]},"type":"text","infobox":{"schedule":"","text":" Rua 5 de Julho, 195 Rio de Janeiro - RJ","homepage":""}}
{"scenarioId":11,"title":"Everest Rio","text":"","userId":27,"loc":{"type":"Point","accuracy":5.0,"coordinates":[-43.206118, -22.985226]},"type":"text","infobox":{"schedule":"","text":" Rua Prudente de Morais, 1117 Rio de Janeiro - RJ","homepage":""}}
{"scenarioId":11,"title":"Hotel Ouro Verde","text":"","userId":27,"loc":{"type":"Point","accuracy":5.0,"coordinates":[-43.176834, -22.966516]},"type":"text","infobox":{"schedule":"","text":" Av. Atlântica, 1456 - Copacabana Rio de Janeiro - RJ","homepage":""}}
{"scenarioId":11,"title":"Praia Ipanema","text":"","userId":27,"loc":{"type":"Point","accuracy":5.0,"coordinates":[-43.214449, -22.986001]},"type":"text","infobox":{"schedule":"","text":" Av. Vieira Souto, 706 Rio de Janeiro - RJ","homepage":""}}
{"scenarioId":11,"title":"Ipanema Tower Residence","text":"","userId":27,"loc":{"type":"Point","accuracy":5.0,"coordinates":[-43.206118, -22.985226]},"type":"text","infobox":{"schedule":"","text":" R Prudente de Morais, 1008 - Ipanema Rio de Janeiro - RJ","homepage":""}}
{"scenarioId":11,"title":"Colinas Residência Hotel","text":"","userId":27,"loc":{"type":"Point","accuracy":5.0,"coordinates":[-43.195004, -22.983506]},"type":"text","infobox":{"schedule":"","text":" Rua Saint Roman, 338 - Copacabana Rio de Janeiro - RJ","homepage":""}}
{"scenarioId":11,"title":"Rio Everest Hotel","text":"","userId":27,"loc":{"type":"Point","accuracy":5.0,"coordinates":[-43.206118, -22.985226]},"type":"text","infobox":{"schedule":"","text":" Rua Prudente de Morais, 1117 Rio de Janeiro - RJ","homepage":""}}
{"scenarioId":11,"title":"Copa Sul Hotel","text":"","userId":27,"loc":{"type":"Point","accuracy":5.0,"coordinates":[-43.19082, -22.983224]},"type":"text","infobox":{"schedule":"","text":" Av. Ns. de Copacabana, 1284 - Copacabana Rio de Janeiro - RJ","homepage":""}}
{"scenarioId":11,"title":"Lagoa First Hotel","text":"","userId":27,"loc":{"type":"Point","accuracy":5.0,"coordinates":[-43.204149, -22.967986]},"type":"text","infobox":{"schedule":"","text":" Av Epitácio Pessoa, 4530 - Lagoa Rio de Janeiro - RJ","homepage":""}}
{"scenarioId":11,"title":"Ibiza Copacabana Hotel","text":"","userId":27,"loc":{"type":"Point","accuracy":5.0,"coordinates":[-43.176486, -22.963284]},"type":"text","infobox":{"schedule":"","text":" Rua Belford Roxo, 250 Rio de Janeiro - RJ","homepage":""}}
{"scenarioId":11,"title":"Casa Del Mar Promenade Hotel","text":"","userId":27,"loc":{"type":"Point","accuracy":5.0,"coordinates":[-43.45249414, -23.02375664]},"type":"text","infobox":{"schedule":"","text":" Av. Sernambetiba, 5740 Barra da Tijuca Rio de Janeiro - RJ","homepage":""}}
{"scenarioId":11,"title":"Rio Lisboa Hotel","text":"","userId":27,"loc":{"type":"Point","accuracy":5.0,"coordinates":[-43.178299, -22.92848]},"type":"text","infobox":{"schedule":"","text":" R Artur Bernardes, 29 - Catete Rio de Janeiro - RJ","homepage":""}}
{"scenarioId":11,"title":"Le Meridien Copacabana Hotel","text":"","userId":27,"loc":{"type":"Point","accuracy":5.0,"coordinates":[-43.173254, -22.964864]},"type":"text","infobox":{"schedule":"","text":" Av. Atlântica, 1020 - Leme Rio de Janeiro - RJ","homepage":""}}
{"scenarioId":11,"title":"Barra: Barrabella Hotel Residência","text":"","userId":27,"loc":{"type":"Point","accuracy":5.0,"coordinates":[-43.34922, -23.010096]},"type":"text","infobox":{"schedule":"","text":" Av Lúcio Costa, 4700 - Barra da Tijuca Rio de Janeiro - RJ","homepage":""}}
{"scenarioId":11,"title":"Hotel Ibiza","text":"","userId":27,"loc":{"type":"Point","accuracy":5.0,"coordinates":[-43.176486, -22.963284]},"type":"text","infobox":{"schedule":"","text":" R Belfort Roxo, 250 - Copacabana Rio de Janeiro - RJ","homepage":""}}
{"scenarioId":11,"title":"Hotel Windsor Excelsior Copacabana","text":"","userId":27,"loc":{"type":"Point","accuracy":5.0,"coordinates":[-43.17987, -22.96657]},"type":"text","infobox":{"schedule":"","text":" Avenida Atlã\u0082Natica, 97 - Copacabana Rio de Janeiro - RJ","homepage":""}}
{"scenarioId":11,"title":"Benidorm Palace Hotel","text":"","userId":27,"loc":{"type":"Point","accuracy":5.0,"coordinates":[-43.188865, -22.970835]},"type":"text","infobox":{"schedule":"","text":" Rua Barata Ribeiro, 547 - Copacabana Rio de Janeiro - RJ","homepage":""}}
{"scenarioId":11,"title":"Copacabana: King George Hostel","text":"","userId":27,"loc":{"type":"Point","accuracy":5.0,"coordinates":[-43.180772, -22.96304]},"type":"text","infobox":{"schedule":"","text":" Tv Guimarães Natal, 12 - Copacabana Rio de Janeiro - RJ","homepage":""}}
{"scenarioId":11,"title":"Copacabana Sol Hotel","text":"","userId":27,"loc":{"type":"Point","accuracy":5.0,"coordinates":[-43.188676, -22.969837]},"type":"text","infobox":{"schedule":"","text":" Rua Santa Clara, 141 - Copacabana Rio de Janeiro - RJ","homepage":""}}
{"scenarioId":11,"title":"Hotel Cristal Palace","text":"","userId":27,"loc":{"type":"Point","accuracy":5.0,"coordinates":[-43.191057, -22.986947]},"type":"text","infobox":{"schedule":"","text":" Rua Francisco Otaviano, 56 Rio de Janeiro - RJ","homepage":""}}
{"scenarioId":11,"title":"Copacabana: Rio Rockers Hostel","text":"","userId":27,"loc":{"type":"Point","accuracy":5.0,"coordinates":[-43.189875, -22.969248]},"type":"text","infobox":{"schedule":"","text":" R. Tonelero, 376 - Copacabana Rio de Janeiro - RJ","homepage":""}}
{"scenarioId":11,"title":"Lemon Spirit Hostel","text":"","userId":27,"loc":{"type":"Point","accuracy":5.0,"coordinates":[-43.220624, -22.984448]},"type":"text","infobox":{"schedule":"","text":" Rua Cupertino Durão, 56 - Leblon Rio de Janeiro - RJ","homepage":""}}
{"scenarioId":11,"title":"Hotel Formule 1 Centro","text":"","userId":27,"loc":{"type":"Point","accuracy":5.0,"coordinates":[-43.182174, -22.907895]},"type":"text","infobox":{"schedule":"","text":" R Silva Jardim, 32 - Centro Rio de Janeiro - RJ","homepage":""}}
{"scenarioId":11,"title":"Hotel Viña Del Mar","text":"","userId":27,"loc":{"type":"Point","accuracy":5.0,"coordinates":[-43.17871, -22.915762]},"type":"text","infobox":{"schedule":"","text":" Rua Joaquim Silva, 57 Rio de Janeiro - RJ","homepage":""}}
{"scenarioId":11,"title":"Hotel dos Ingleses","text":"","userId":27,"loc":{"type":"Point","accuracy":5.0,"coordinates":[-43.1779198, -22.9257596]},"type":"text","infobox":{"schedule":"","text":" R. Silveira Martins, s\/n - Flamengo Rio de Janeiro - RJ","homepage":""}}
{"scenarioId":11,"title":"Hotel Windsor Flrida","text":"","userId":27,"loc":{"type":"Point","accuracy":5.0,"coordinates":[-43.1764, -22.92683]},"type":"text","infobox":{"schedule":"","text":" Rua Ferreira Viana, 59 - Flamengo Rio de Janeiro - RJ","homepage":""}}
{"scenarioId":11,"title":"Hotel Amazonas","text":"","userId":27,"loc":{"type":"Point","accuracy":5.0,"coordinates":[-43.188858, -22.8993739]},"type":"text","infobox":{"schedule":"","text":" Rua Alexandre Mackenzie., 122 Rio de Janeiro - RJ","homepage":""}}
{"scenarioId":11,"title":"Golden Tulip Continental","text":"","userId":27,"loc":{"type":"Point","accuracy":5.0,"coordinates":[-43.169163, -22.962503]},"type":"text","infobox":{"schedule":"","text":" Rua Gustavo Sampaio,, 320 Rio de Janeiro - RJ","homepage":""}}
{"scenarioId":11,"title":"Promenade The Claridge","text":"","userId":27,"loc":{"type":"Point","accuracy":5.0,"coordinates":[-43.226851, -22.984596]},"type":"text","infobox":{"schedule":"","text":" R Rnh Guilhermina, 156 - Leblon Rio de Janeiro - RJ","homepage":""}}
{"scenarioId":11,"title":"Promenade Visconti","text":"","userId":27,"loc":{"type":"Point","accuracy":5.0,"coordinates":[-43.206118, -22.985226]},"type":"text","infobox":{"schedule":"","text":" R Prudente de Morais, 1050 - Ipanema Rio de Janeiro - RJ","homepage":""}}
{"scenarioId":11,"title":"Windsor Florida","text":"","userId":27,"loc":{"type":"Point","accuracy":5.0,"coordinates":[-43.176591, -22.926772]},"type":"text","infobox":{"schedule":"","text":" Rua Ferreira Viana, 81 - Flamengo Rio de Janeiro - RJ","homepage":""}}
{"scenarioId":11,"title":"Promenade Barra First","text":"","userId":27,"loc":{"type":"Point","accuracy":5.0,"coordinates":[-43.405, -23.0003]},"type":"text","infobox":{"schedule":"","text":" Avenida das Maericas, 7897 - Barra da Tijuca Rio de Janeiro - RJ","homepage":""}}
{"scenarioId":11,"title":"Mercury Botafogo","text":"","userId":27,"loc":{"type":"Point","accuracy":5.0,"coordinates":[-43.1816908, -22.9503906]},"type":"text","infobox":{"schedule":"","text":" R. Voluntários da Pátria, s\/n - Botafogo Rio de Janeiro - RJ","homepage":""}}
{"scenarioId":11,"title":"Mercury Arpoador","text":"","userId":27,"loc":{"type":"Point","accuracy":5.0,"coordinates":[-43.190306, -22.98676]},"type":"text","infobox":{"schedule":"","text":" R Francisco Otaviano, 41 - Copacabana Rio de Janeiro - RJ","homepage":""}}
{"scenarioId":11,"title":"Ibis Silva Jardim","text":"","userId":27,"loc":{"type":"Point","accuracy":5.0,"coordinates":[-43.182174, -22.907895]},"type":"text","infobox":{"schedule":"","text":" Rua Silva Jardim, 32 Rio de Janeiro - RJ","homepage":""}}
{"scenarioId":11,"title":"Royal Rio Palace Hotel","text":"","userId":27,"loc":{"type":"Point","accuracy":5.0,"coordinates":[-43.178231, -22.964973]},"type":"text","infobox":{"schedule":"","text":" Rua Duvivier, 70 Rio de Janeiro - RJ","homepage":""}}
{"scenarioId":11,"title":"Pousada Barra Sol","text":"","userId":27,"loc":{"type":"Point","accuracy":5.0,"coordinates":[-43.315998446789, -23.00577187176]},"type":"text","infobox":{"schedule":"","text":" Av Grande Canal, 301 - Barra da Tijuca Rio de Janeiro - RJ","homepage":""}}
{"scenarioId":11,"title":"Hotel Pouso Real","text":"","userId":27,"loc":{"type":"Point","accuracy":5.0,"coordinates":[-43.183896, -22.91238]},"type":"text","infobox":{"schedule":"","text":" R do Rezende, 35 - Centro Rio de Janeiro - RJ","homepage":""}}
{"scenarioId":11,"title":"Hotel Amazonas","text":"","userId":27,"loc":{"type":"Point","accuracy":5.0,"coordinates":[-43.188925, -22.899309]},"type":"text","infobox":{"schedule":"","text":" Rua Alexandre Mackenzie., 122 Rio de Janeiro - RJ","homepage":""}}
{"scenarioId":11,"title":"Monte Castelo Hotel","text":"","userId":27,"loc":{"type":"Point","accuracy":5.0,"coordinates":[-43.178047, -22.919398]},"type":"text","infobox":{"schedule":"","text":" Rua Cândido Mendes, 201 - Glória Rio de Janeiro - RJ","homepage":""}}
{"scenarioId":11,"title":"Sheik Hotel","text":"","userId":27,"loc":{"type":"Point","accuracy":5.0,"coordinates":[-43.185257, -22.907487]},"type":"text","infobox":{"schedule":"","text":" Av Gomes Freire, 55 - Centro Rio de Janeiro - RJ","homepage":""}}
{"scenarioId":11,"title":"Leme Othon Palace","text":"","userId":27,"loc":{"type":"Point","accuracy":5.0,"coordinates":[-43.1698007, -22.9633907]},"type":"text","infobox":{"schedule":"","text":" Av. Atlântica, 656 Rio de Janeiro - RJ","homepage":""}}
{"scenarioId":11,"title":"Orla Copacabana Hotel","text":"","userId":27,"loc":{"type":"Point","accuracy":5.0,"coordinates":[-43.189338, -22.985082]},"type":"text","infobox":{"schedule":"","text":" Av. Atlântica, 4122 Rio de Janeiro - RJ","homepage":""}}
{"scenarioId":11,"title":"Real Hotel","text":"","userId":27,"loc":{"type":"Point","accuracy":5.0,"coordinates":[-43.193261, -22.953399]},"type":"text","infobox":{"schedule":"","text":" R Real Grandeza, 122 - Botafogo Rio de Janeiro - RJ","homepage":""}}
{"scenarioId":11,"title":"Regina Hotel","text":"","userId":27,"loc":{"type":"Point","accuracy":5.0,"coordinates":[-43.1738107, -22.9277005]},"type":"text","infobox":{"schedule":"","text":" R. Ferreira Viana, 29 - Flamengo Rio de Janeiro - RJ","homepage":""}}
{"scenarioId":11,"title":"Granada Hotel","text":"","userId":27,"loc":{"type":"Point","accuracy":5.0,"coordinates":[-43.183657, -22.911269]},"type":"text","infobox":{"schedule":"","text":" Av. Gomes Freire, 530 Rio de Janeiro - RJ","homepage":""}}
{"scenarioId":11,"title":"Copacabana Hotel Residência","text":"","userId":27,"loc":{"type":"Point","accuracy":5.0,"coordinates":[-43.18101, -22.965554]},"type":"text","infobox":{"schedule":"","text":" Rua Barata Ribeiro, 222 Copacabana Rio de Janeiro - RJ","homepage":""}}
{"scenarioId":11,"title":"San Marco Hotel","text":"","userId":27,"loc":{"type":"Point","accuracy":5.0,"coordinates":[-43.210259, -22.983926]},"type":"text","infobox":{"schedule":"","text":" Rua Visconde de Pirajá, 524 - Ipanema Rio de Janeiro - RJ","homepage":""}}
{"scenarioId":11,"title":"Angrense Hotel","text":"","userId":27,"loc":{"type":"Point","accuracy":5.0,"coordinates":[-43.1875971, -22.9719095]},"type":"text","infobox":{"schedule":"","text":" Travessa Angrense, 25 - Copacabana Rio de Janeiro - RJ","homepage":""}}
{"scenarioId":11,"title":"Ducasse Rio Hotel","text":"","userId":27,"loc":{"type":"Point","accuracy":5.0,"coordinates":[-43.191925, -22.980997]},"type":"text","infobox":{"schedule":"","text":" Rua Sá Ferreira, 76 Rio de Janeiro - RJ","homepage":""}}
{"scenarioId":11,"title":"Rio Intercontinental Hotel","text":"","userId":27,"loc":{"type":"Point","accuracy":5.0,"coordinates":[-43.25692, -22.998557]},"type":"text","infobox":{"schedule":"","text":" Av Pref Mendes de Morais, 222 - Vidigal Rio de Janeiro - RJ","homepage":""}}
{"scenarioId":11,"title":"Diamond Hotel - Glória","text":"","userId":27,"loc":{"type":"Point","accuracy":5.0,"coordinates":[-43.1771157, -22.9178355]},"type":"text","infobox":{"schedule":"","text":" R. da Glória, 46 - Santa Cruz Rio de Janeiro - RJ","homepage":""}}
{"scenarioId":11,"title":"Hotel Hispano Brasileiro - Flamengo","text":"","userId":27,"loc":{"type":"Point","accuracy":5.0,"coordinates":[-43.1779198, -22.9257596]},"type":"text","infobox":{"schedule":"","text":" R. Silveira Martins, 135 - Jardim Sulacap Rio de Janeiro - RJ","homepage":""}}
{"scenarioId":11,"title":"Love Time Hotel - Catete","text":"","userId":27,"loc":{"type":"Point","accuracy":5.0,"coordinates":[-43.177252, -22.92279]},"type":"text","infobox":{"schedule":"","text":" R. do Catete, 63 - Glória Rio de Janeiro - RJ","homepage":""}}
{"scenarioId":11,"title":"Villa Del Sol Residence","text":"","userId":27,"loc":{"type":"Point","accuracy":5.0,"coordinates":[-43.483039, -23.031556]},"type":"text","infobox":{"schedule":"","text":" Estrada do Pontal, 7100 Praia do Pontal Rio de Janeiro - RJ","homepage":""}}
{"scenarioId":11,"title":"Mirador Rio Hotel","text":"","userId":27,"loc":{"type":"Point","accuracy":5.0,"coordinates":[-43.1889, -22.9685]},"type":"text","infobox":{"schedule":"","text":" Rua Tonelero, 338 Rio de Janeiro - RJ","homepage":""}}
{"scenarioId":11,"title":"Novo Mundo Hotel","text":"","userId":27,"loc":{"type":"Point","accuracy":5.0,"coordinates":[-43.172963, -22.925002]},"type":"text","infobox":{"schedule":"","text":" Praia do Flamengo, 20 Rio de Janeiro - RJ","homepage":""}}
{"scenarioId":11,"title":"Grande Hotel So Francisco","text":"","userId":27,"loc":{"type":"Point","accuracy":5.0,"coordinates":[-43.1798787, -22.9000366]},"type":"text","infobox":{"schedule":"","text":" Rua Visconde de Inhaúma, S\/N Rio de Janeiro - RJ","homepage":""}}
{"scenarioId":11,"title":"Hotel Vina Del Mar","text":"","userId":27,"loc":{"type":"Point","accuracy":5.0,"coordinates":[-43.1786299083958, -22.915901207346327]},"type":"text","infobox":{"schedule":"","text":" Rua Joaquim Silva, 59 Rio de Janeiro - RJ","homepage":""}}
{"scenarioId":11,"title":"Hotel Gvea Tropical","text":"","userId":27,"loc":{"type":"Point","accuracy":5.0,"coordinates":[-43.2422662, -22.9855089]},"type":"text","infobox":{"schedule":"","text":" Rua Sérgio Porto, S\/N Rio de Janeiro - RJ","homepage":""}}
{"scenarioId":11,"title":"Hotel Windsor Barra","text":"","userId":27,"loc":{"type":"Point","accuracy":5.0,"coordinates":[-43.3704824, -23.0110353]},"type":"text","infobox":{"schedule":"","text":" Av. Lucio Costa, S\/N - Barra da Tijuca Rio de Janeiro - RJ","homepage":""}}
{"scenarioId":11,"title":"Atlntico Sul Hotel","text":"","userId":27,"loc":{"type":"Point","accuracy":5.0,"coordinates":[-43.4704892, -23.0287901]},"type":"text","infobox":{"schedule":"","text":" Av. Armando Ribeiro, S\/N Rio de Janeiro - RJ","homepage":""}}
{"scenarioId":11,"title":"Monte Alegre Hotel","text":"","userId":27,"loc":{"type":"Point","accuracy":5.0,"coordinates":[-43.1873993, -22.9150186]},"type":"text","infobox":{"schedule":"","text":" Rua Riachuelo, 6 Rio de Janeiro - RJ","homepage":""}}
{"scenarioId":11,"title":"Golden Park Hotel","text":"","userId":27,"loc":{"type":"Point","accuracy":5.0,"coordinates":[-43.173975, -22.92229]},"type":"text","infobox":{"schedule":"","text":" R do Russel, 374 - Glória Rio de Janeiro - RJ","homepage":""}}
{"scenarioId":11,"title":"Villa Del Sol Hotel","text":"","userId":27,"loc":{"type":"Point","accuracy":5.0,"coordinates":[-43.483039, -23.031556]},"type":"text","infobox":{"schedule":"","text":" Estrada do Pontal, 7100 Rio de Janeiro - RJ","homepage":""}}
{"scenarioId":11,"title":"Fênix Hotel","text":"","userId":27,"loc":{"type":"Point","accuracy":5.0,"coordinates":[-43.187782, -22.910117]},"type":"text","infobox":{"schedule":"","text":" Rua do Senado, 189 Rio de Janeiro - RJ","homepage":""}}
{"scenarioId":11,"title":"Marina Palace Hotel","text":"","userId":27,"loc":{"type":"Point","accuracy":5.0,"coordinates":[-43.222109, -22.986927]},"type":"text","infobox":{"schedule":"","text":" Av. Delfim Moreira, 630 Rio de Janeiro - RJ","homepage":""}}
{"scenarioId":11,"title":"Copacabana Sol Hotel","text":"","userId":27,"loc":{"type":"Point","accuracy":5.0,"coordinates":[-43.188676, -22.969837]},"type":"text","infobox":{"schedule":"","text":" Rua Santa Clara, 141 - Copacabana Rio de Janeiro - RJ","homepage":""}}
{"scenarioId":11,"title":"Ipanema Inn","text":"","userId":27,"loc":{"type":"Point","accuracy":5.0,"coordinates":[-43.207193, -22.985732]},"type":"text","infobox":{"schedule":"","text":" Rua Maria Quitéria, 27 Rio de Janeiro - RJ","homepage":""}}
{"scenarioId":11,"title":"Hotel Villa Tijuca","text":"","userId":27,"loc":{"type":"Point","accuracy":5.0,"coordinates":[-43.216561, -22.920277066666667]},"type":"text","infobox":{"schedule":"","text":" Rua Haddock Lobo, 326 Rio de Janeiro - RJ","homepage":""}}
{"scenarioId":11,"title":"Olinda Othon Hotel","text":"","userId":27,"loc":{"type":"Point","accuracy":5.0,"coordinates":[-43.183076, -22.970364]},"type":"text","infobox":{"schedule":"","text":" Av. Atlantica, 2230 - Copacabana Rio de Janeiro - RJ","homepage":""}}
{"scenarioId":11,"title":"Hotel Mar Bella","text":"","userId":27,"loc":{"type":"Point","accuracy":5.0,"coordinates":[-43.300333, -23.0089]},"type":"text","infobox":{"schedule":"","text":" Estrada da Barra da Tijuca, 431 Rio de Janeiro - RJ","homepage":""}}
{"scenarioId":11,"title":"Hotel Ouro Verde - Copacabana","text":"","userId":27,"loc":{"type":"Point","accuracy":5.0,"coordinates":[-43.176834, -22.966516]},"type":"text","infobox":{"schedule":"","text":" Av. Atlântica, 1456 Posto 2 - Copacabana Rio de Janeiro - RJ","homepage":""}}
{"scenarioId":11,"title":"Apa Hotel","text":"","userId":27,"loc":{"type":"Point","accuracy":5.0,"coordinates":[-43.182993, -22.96616]},"type":"text","infobox":{"schedule":"","text":" Rua República do Peru, 305 - Copacabana Rio de Janeiro - RJ","homepage":""}}
{"scenarioId":11,"title":"Luxor Copacabana","text":"","userId":27,"loc":{"type":"Point","accuracy":5.0,"coordinates":[-43.185291, -22.972342]},"type":"text","infobox":{"schedule":"","text":" Av Atlântica, 2554 - Copacabana Rio de Janeiro - RJ","homepage":""}}
{"scenarioId":11,"title":"Luxor Continental","text":"","userId":27,"loc":{"type":"Point","accuracy":5.0,"coordinates":[-43.169163, -22.962503]},"type":"text","infobox":{"schedule":"","text":" R Gustavo Sampaio, 320 - Leme Rio de Janeiro - RJ","homepage":""}}
{"scenarioId":11,"title":"Hotel Rondônia Palace","text":"","userId":27,"loc":{"type":"Point","accuracy":5.0,"coordinates":[-43.175747, -22.929041]},"type":"text","infobox":{"schedule":"","text":" Rua Buarque de Macedo, 60 Rio de Janeiro - RJ","homepage":""}}
{"scenarioId":11,"title":"Grande Hotel Canadá","text":"","userId":27,"loc":{"type":"Point","accuracy":5.0,"coordinates":[-43.18693, -22.9712]},"type":"text","infobox":{"schedule":"","text":" Av Copacabana,n S, 687 - Copacabana Rio de Janeiro - RJ","homepage":""}}
{"scenarioId":11,"title":"Best Western Sol Ipanema","text":"","userId":27,"loc":{"type":"Point","accuracy":5.0,"coordinates":[-43.203222, -22.986514]},"type":"text","infobox":{"schedule":"","text":" Av. Vieira Souto, 320 Rio de Janeiro - RJ","homepage":""}}
{"scenarioId":11,"title":"Condominio do Ed. Vieira Souto 510 Residence Service - Ipanema","text":"","userId":27,"loc":{"type":"Point","accuracy":5.0,"coordinates":[-43.208277, -22.986241]},"type":"text","infobox":{"schedule":"","text":" Av Vieira Souto, 510 - Ipanema Rio de Janeiro - RJ","homepage":""}}
{"scenarioId":11,"title":"Ipanema Plaza","text":"","userId":27,"loc":{"type":"Point","accuracy":5.0,"coordinates":[-43.200839, -22.986078]},"type":"text","infobox":{"schedule":"","text":" R Farme de Amoedo, 34 - Ipanema Rio de Janeiro - RJ","homepage":""}}
{"scenarioId":11,"title":"Hotel Real","text":"","userId":27,"loc":{"type":"Point","accuracy":5.0,"coordinates":[-43.193261, -22.953399]},"type":"text","infobox":{"schedule":"","text":" R Real Grandeza, 122 - Botafogo Rio de Janeiro - RJ","homepage":""}}
{"scenarioId":11,"title":"Mar Palace Copacabana Hotel","text":"","userId":27,"loc":{"type":"Point","accuracy":5.0,"coordinates":[-43.18439, -22.96898]},"type":"text","infobox":{"schedule":"","text":" Av. Nossa Senhora de Copacabana, 552 - Copacabana Rio de Janeiro - RJ","homepage":""}}
{"scenarioId":11,"title":"Praia Linda","text":"","userId":27,"loc":{"type":"Point","accuracy":5.0,"coordinates":[-43.20959, -22.90354]},"type":"text","infobox":{"schedule":"","text":" Av. Nossa Senhora de Copacabana, S\/N - Copacabana Rio de Janeiro - RJ","homepage":""}}
{"scenarioId":11,"title":"Um Meia Três","text":"","userId":27,"loc":{"type":"Point","accuracy":5.0,"coordinates":[-43.18784, -22.92437]},"type":"text","infobox":{"schedule":"","text":" R Leopoldo Fróis, 32 - Santa Teresa Rio de Janeiro - RJ","homepage":""}}
{"scenarioId":11,"title":"Relais Solar","text":"","userId":27,"loc":{"type":"Point","accuracy":5.0,"coordinates":[-43.18533, -22.92232]},"type":"text","infobox":{"schedule":"","text":" Ladeira do Meireles, 13 - Santa Teresa Rio de Janeiro - RJ","homepage":""}}
{"scenarioId":11,"title":"Quinta Rosa Residencias","text":"","userId":27,"loc":{"type":"Point","accuracy":5.0,"coordinates":[-43.18349, -22.92113]},"type":"text","infobox":{"schedule":"","text":" Rua Santa Cristina, 118 - Santa Teresa Rio de Janeiro - RJ","homepage":""}}
{"scenarioId":11,"title":"Novo Mundo","text":"","userId":27,"loc":{"type":"Point","accuracy":5.0,"coordinates":[-43.17392, -22.93225]},"type":"text","infobox":{"schedule":"","text":" Av Inf-D Henrique, S\/N - Flamengo Rio de Janeiro - RJ","homepage":""}}
{"scenarioId":11,"title":"Merlin Copacabana Hotel","text":"","userId":27,"loc":{"type":"Point","accuracy":5.0,"coordinates":[-43.17466, -22.96313]},"type":"text","infobox":{"schedule":"","text":" R Min Viveiros de Castro, 18 - Copacabana Rio de Janeiro - RJ","homepage":""}}
{"scenarioId":11,"title":"Windsor Plaza Copacabana","text":"","userId":27,"loc":{"type":"Point","accuracy":5.0,"coordinates":[-43.17498, -22.96116]},"type":"text","infobox":{"schedule":"","text":" Av. Princesa Isabel, 370 Rio de Janeiro - RJ","homepage":""}}
{"scenarioId":11,"title":"Luxor Aeroporto Hotel","text":"","userId":27,"loc":{"type":"Point","accuracy":5.0,"coordinates":[-43.2554, -22.82]},"type":"text","infobox":{"schedule":"","text":" Aeroporto Inter. do Rj Term. 1, 3 - Galeão Rio de Janeiro - RJ","homepage":""}}
{"scenarioId":11,"title":"La Suite","text":"","userId":27,"loc":{"type":"Point","accuracy":5.0,"coordinates":[-43.28838, -23.01139]},"type":"text","infobox":{"schedule":"","text":" Rua Jackson de Figueiredo, S\/N - Barra da Tijuca Rio de Janeiro - RJ","homepage":""}}
{"scenarioId":11,"title":"Sol da Barra Apart Hotel","text":"","userId":27,"loc":{"type":"Point","accuracy":5.0,"coordinates":[-43.30416, -23.01493]},"type":"text","infobox":{"schedule":"","text":" Avenida Sernambetiba, 620 - Barra da Tijuca Rio de Janeiro - RJ","homepage":""}}
{"scenarioId":11,"title":"Windsor Barra","text":"","userId":27,"loc":{"type":"Point","accuracy":5.0,"coordinates":[-43.32158, -23.01058]},"type":"text","infobox":{"schedule":"","text":" Av. Sernambetida, S\/N - Barra da Tijuca Rio de Janeiro - RJ","homepage":""}}
{"scenarioId":11,"title":"Solar Fazenda do Cedro","text":"","userId":27,"loc":{"type":"Point","accuracy":5.0,"coordinates":[-43.20516, -22.92567]},"type":"text","infobox":{"schedule":"","text":" Rodovia Br 040, 45 - Rio Comprido Rio de Janeiro - RJ","homepage":""}}
{"scenarioId":11,"title":"Mercure Ipanema","text":"","userId":27,"loc":{"type":"Point","accuracy":5.0,"coordinates":[-43.19398, -22.98559]},"type":"text","infobox":{"schedule":"","text":" Av Rnh Elizabeth da Bélgica, 450 - Ipanema Rio de Janeiro - RJ","homepage":""}}
{"scenarioId":11,"title":"Windsor Flórida","text":"","userId":27,"loc":{"type":"Point","accuracy":5.0,"coordinates":[-43.1751846514287, -22.9271945492926]},"type":"text","infobox":{"schedule":"","text":" Rua Ferreira Viana, 81 (Flamengo) - Flamengo Rio de Janeiro - RJ","homepage":""}}
{"scenarioId":11,"title":"Bourbon Residence Barra Premium","text":"","userId":27,"loc":{"type":"Point","accuracy":5.0,"coordinates":[-43.40503, -23.0003]},"type":"text","infobox":{"schedule":"","text":" Av. das Américas, 7899 (Barra da Tijuca), 7899 - Barra da Tijuca Rio de Janeiro - RJ","homepage":""}}
{"scenarioId":11,"title":"Rio's Presidente Hotel","text":"","userId":27,"loc":{"type":"Point","accuracy":5.0,"coordinates":[-43.1824922561646, -22.9082778187969]},"type":"text","infobox":{"schedule":"","text":" Rua Pedro I, 19 Rio de Janeiro - RJ","homepage":""}}
{"scenarioId":11,"title":"Best Western Augusto´s Rio Copa Hotel","text":"","userId":27,"loc":{"type":"Point","accuracy":5.0,"coordinates":[-43.175115, -22.961648]},"type":"text","infobox":{"schedule":"","text":" Av. Princesa Isabel, 370 - Copacabana Rio de Janeiro - RJ","homepage":""}}
{"scenarioId":11,"title":"Augusto's Paysandu Hotel","text":"","userId":27,"loc":{"type":"Point","accuracy":5.0,"coordinates":[-43.17509, -22.9333591]},"type":"text","infobox":{"schedule":"","text":" Rua Paissandu, 23 - Flamengo Rio de Janeiro - RJ","homepage":""}}
{"scenarioId":11,"title":"Augusto's Copacabana Hotel","text":"","userId":27,"loc":{"type":"Point","accuracy":5.0,"coordinates":[-43.1916858, -22.9757203]},"type":"text","infobox":{"schedule":"","text":" Rua Bolivar, 119 Rio de Janeiro - RJ","homepage":""}}
{"scenarioId":11,"title":"Che Lagarto Hostel Ipanema","text":"","userId":27,"loc":{"type":"Point","accuracy":5.0,"coordinates":[-43.2142767, -22.9846036]},"type":"text","infobox":{"schedule":"","text":" Rua Paul Redfern, 48 - Ipanema Rio de Janeiro - RJ","homepage":""}}
{"scenarioId":11,"title":"Villa Del Sol","text":"","userId":27,"loc":{"type":"Point","accuracy":5.0,"coordinates":[-43.483804, -23.0317924]},"type":"text","infobox":{"schedule":"","text":" Estrada do Pontal, S\/N Rio de Janeiro - RJ","homepage":""}}
{"scenarioId":11,"title":"Hostel Rio de Janeiro Albergue Vila Carioca","text":"","userId":27,"loc":{"type":"Point","accuracy":5.0,"coordinates":[-43.186126, -22.951064]},"type":"text","infobox":{"schedule":"","text":" R Estácio Coimbra, 84 - Botafogo Rio de Janeiro - RJ","homepage":""}}
{"scenarioId":11,"title":"Windsor Excelsior Copacabana","text":"","userId":27,"loc":{"type":"Point","accuracy":5.0,"coordinates":[-43.17987, -22.96657]},"type":"text","infobox":{"schedule":"","text":" R Gen Barbosa Lima, 97 - Copacabana Rio de Janeiro - RJ","homepage":""}}
{"scenarioId":11,"title":"Promenade Paradiso","text":"","userId":27,"loc":{"type":"Point","accuracy":5.0,"coordinates":[-43.3204342, -23.005038]},"type":"text","infobox":{"schedule":"","text":" Avenida das Américas, 487 - Barra da Tijuca Rio de Janeiro - RJ","homepage":""}}
{"scenarioId":11,"title":"Challon Hotel","text":"","userId":27,"loc":{"type":"Point","accuracy":5.0,"coordinates":[-43.1810883, -22.9207271]},"type":"text","infobox":{"schedule":"","text":" Rua Candido Mendes - 487, 497 Rio de Janeiro - RJ","homepage":""}}
{"scenarioId":11,"title":"Ipanema Beach House","text":"","userId":27,"loc":{"type":"Point","accuracy":5.0,"coordinates":[-43.20861, -22.98292]},"type":"text","infobox":{"schedule":"","text":" Rua Barão da Torre, 485 (Ipanema) - Ipanema Rio de Janeiro - RJ","homepage":""}}
{"scenarioId":11,"title":"Regina","text":"","userId":27,"loc":{"type":"Point","accuracy":5.0,"coordinates":[-43.17381, -22.9277]},"type":"text","infobox":{"schedule":"","text":" R. Ferreira Viana, 29 (Flamengo) - Flamengo Rio de Janeiro - RJ","homepage":""}}
{"scenarioId":11,"title":"Samba Palace Hostel","text":"","userId":27,"loc":{"type":"Point","accuracy":5.0,"coordinates":[-43.1908405, -22.9359804]},"type":"text","infobox":{"schedule":"","text":" Rua Alice, 97 - Taquara Rio de Janeiro - RJ","homepage":""}}
{"scenarioId":11,"title":"Windsor Asturias","text":"","userId":27,"loc":{"type":"Point","accuracy":5.0,"coordinates":[-43.176505, -22.911921]},"type":"text","infobox":{"schedule":"","text":" Rua Senador Dantas, 14 (Cinelândia) Rio de Janeiro - RJ","homepage":""}}
{"scenarioId":11,"title":"Hotel San Diego","text":"","userId":27,"loc":{"type":"Point","accuracy":5.0,"coordinates":[-43.1901334, -22.9016797]},"type":"text","infobox":{"schedule":"","text":" Rua Senador Pompeu, 190 - Centro Rio de Janeiro - RJ","homepage":""}}
{"scenarioId":11,"title":"Ipanema Copa Rooms","text":"","userId":27,"loc":{"type":"Point","accuracy":5.0,"coordinates":[-43.1929726, -22.9845009]},"type":"text","infobox":{"schedule":"","text":" Rua Julio de Castilhos, 94 - Copacabana Rio de Janeiro - RJ","homepage":""}}
{"scenarioId":11,"title":"Pestana Rio Atlântica","text":"","userId":27,"loc":{"type":"Point","accuracy":5.0,"coordinates":[-39.7323, -22.96339]},"type":"text","infobox":{"schedule":"","text":" Av. Atlântica, 2964 - Copacabana Rio de Janeiro - RJ","homepage":""}}
{"scenarioId":11,"title":"Fênix Motel","text":"","userId":27,"loc":{"type":"Point","accuracy":5.0,"coordinates":[-43.18808734416962, -22.9104223355696]},"type":"text","infobox":{"schedule":"","text":" Rua do Senado, 189 Rio de Janeiro - RJ","homepage":""}}
{"scenarioId":11,"title":"Tulip Inn - Copacabana","text":"","userId":27,"loc":{"type":"Point","accuracy":5.0,"coordinates":[-43.185291, -22.972342]},"type":"text","infobox":{"schedule":"","text":" Avenida Atlantica,, 2554 Rio de Janeiro - RJ","homepage":""}}
{"scenarioId":11,"title":"Grande Hotel São Francisco","text":"","userId":27,"loc":{"type":"Point","accuracy":5.0,"coordinates":[-43.1800361, -22.8999509]},"type":"text","infobox":{"schedule":"","text":" Rua Visconde de Inhauma, 95 - Centro Rio de Janeiro - RJ","homepage":""}}
{"scenarioId":11,"title":"Praia Linda Hotel","text":"","userId":27,"loc":{"type":"Point","accuracy":5.0,"coordinates":[-43.3129411, -23.0140879]},"type":"text","infobox":{"schedule":"","text":" Av do Pepê, 1430 - Barra da Tijuca Rio de Janeiro - RJ","homepage":""}}
{"scenarioId":11,"title":"Colinas Residência","text":"","userId":27,"loc":{"type":"Point","accuracy":5.0,"coordinates":[-43.195004, -22.983506]},"type":"text","infobox":{"schedule":"","text":" Rua Saint Roman, 338 - Copacabana Rio de Janeiro - RJ","homepage":""}}
{"scenarioId":11,"title":"Copacabana Palace Hotel","text":"","userId":27,"loc":{"type":"Point","accuracy":5.0,"coordinates":[-43.178976, -22.967681]},"type":"text","infobox":{"schedule":"","text":" Av. Atlântica, 1702 - Copacabana Rio de Janeiro - RJ","homepage":""}}
{"scenarioId":11,"title":"Leblon Flat Service","text":"","userId":27,"loc":{"type":"Point","accuracy":5.0,"coordinates":[-43.2170112, -22.9827966]},"type":"text","infobox":{"schedule":"","text":" Rua Prof. Antônio Maria Teixeira, 33 - Ipanema Rio de Janeiro - RJ","homepage":""}}
{"scenarioId":11,"title":"El Misti Hostel Botafogo","text":"","userId":27,"loc":{"type":"Point","accuracy":5.0,"coordinates":[-43.3634548, -22.8206387]},"type":"text","infobox":{"schedule":"","text":" Praia de Botafogo, 462 , Casa 9 - Botafogo Rio de Janeiro - RJ","homepage":""}}
{"scenarioId":11,"title":"El Misti Hostel Copacabana","text":"","userId":27,"loc":{"type":"Point","accuracy":5.0,"coordinates":[-43.192395, -22.972383]},"type":"text","infobox":{"schedule":"","text":" Travessa Frederico Pamplona, 20 - Copacabana Rio de Janeiro - RJ","homepage":""}}
{"scenarioId":11,"title":"Porto Bay Rio Internacional Hotel","text":"","userId":27,"loc":{"type":"Point","accuracy":5.0,"coordinates":[-43.177074, -22.966634]},"type":"text","infobox":{"schedule":"","text":" Avenida Atlântica, 1500 Rio de Janeiro - RJ","homepage":""}}
{"scenarioId":11,"title":"Santa Teresa Hotel","text":"","userId":27,"loc":{"type":"Point","accuracy":5.0,"coordinates":[-43.187804, -22.922591]},"type":"text","infobox":{"schedule":"","text":" Rua Almirante Alexandrino, 660 Rio de Janeiro - RJ","homepage":""}}
{"scenarioId":11,"title":"Diamond Hotel","text":"","userId":27,"loc":{"type":"Point","accuracy":5.0,"coordinates":[-43.1771157, -22.9178355]},"type":"text","infobox":{"schedule":"","text":" R. da Glï¿½Ria, 46 - Glória Rio de Janeiro - RJ","homepage":""}}
{"scenarioId":11,"title":"Hotel Bandeirantes","text":"","userId":27,"loc":{"type":"Point","accuracy":5.0,"coordinates":[-43.188932, -22.970897]},"type":"text","infobox":{"schedule":"","text":" R. Barata Ribeiro, 548 Rio de Janeiro - RJ","homepage":""}}
{"scenarioId":11,"title":"Mercure Apt Botafogo (Accor Hotel)","text":"","userId":27,"loc":{"type":"Point","accuracy":5.0,"coordinates":[-43.19009, -22.95256]},"type":"text","infobox":{"schedule":"","text":" Rua Sorocaba, 305 Rio de Janeiro - RJ","homepage":""}}
{"scenarioId":11,"title":"Copacabana Praia Hotel","text":"","userId":27,"loc":{"type":"Point","accuracy":5.0,"coordinates":[-43.190221, -22.985221]},"type":"text","infobox":{"schedule":"","text":" Av. Atlântica, 1378 Rio de Janeiro - RJ","homepage":""}}
{"scenarioId":11,"title":"Rio Your Apartment","text":"","userId":27,"loc":{"type":"Point","accuracy":5.0,"coordinates":[-43.189118, -22.978373]},"type":"text","infobox":{"schedule":"","text":" Av Atlântica, 3332 - Copacabana Rio de Janeiro - RJ","homepage":""}}
{"scenarioId":11,"title":"Mistura Carioca","text":"","userId":27,"loc":{"type":"Point","accuracy":5.0,"coordinates":[-43.182639, -22.913562]},"type":"text","infobox":{"schedule":"","text":" Av. Gomes Freire, 791 - Lapa Rio de Janeiro - RJ","homepage":""}}
{"scenarioId":11,"title":"Tr Flats - Copacabana","text":"","userId":27,"loc":{"type":"Point","accuracy":5.0,"coordinates":[-43.174511, -22.964104]},"type":"text","infobox":{"schedule":"","text":" Av Ns de Copacabana, 75 - Copacabana Rio de Janeiro - RJ","homepage":""}}
{"scenarioId":11,"title":"South American Copacabana","text":"","userId":27,"loc":{"type":"Point","accuracy":5.0,"coordinates":[-43.193514, -22.983603]},"type":"text","infobox":{"schedule":"","text":" Rua Francisco Sá, 90 - Copacabana Rio de Janeiro - RJ","homepage":""}}
{"scenarioId":11,"title":"Gaivota Hotel","text":"","userId":27,"loc":{"type":"Point","accuracy":5.0,"coordinates":[-43.308265, -23.012179]},"type":"text","infobox":{"schedule":"","text":" Av Belisário Leite D Andrade Neto, 406 - Barra da Tijuca Rio de Janeiro - RJ","homepage":""}}
{"scenarioId":11,"title":"Astória Copacabana","text":"","userId":27,"loc":{"type":"Point","accuracy":5.0,"coordinates":[-43.182993, -22.96616]},"type":"text","infobox":{"schedule":"","text":" Rua República do Peru, 345 Rio de Janeiro - RJ","homepage":""}}
{"scenarioId":11,"title":"Everest Rio Hotel","text":"","userId":27,"loc":{"type":"Point","accuracy":5.0,"coordinates":[-43.20695, -22.98518]},"type":"text","infobox":{"schedule":"","text":" Rua Prudente de Morais, 1117 Rio de Janeiro - RJ","homepage":""}}
{"scenarioId":11,"title":"Sheraton Rio Hotel","text":"","userId":27,"loc":{"type":"Point","accuracy":5.0,"coordinates":[-43.227602, -22.989667]},"type":"text","infobox":{"schedule":"","text":" Av. Niemeyer, 121 Rio de Janeiro - RJ","homepage":""}}
{"scenarioId":11,"title":"Hotel Ibis Rio de Janeiro Centro","text":"","userId":27,"loc":{"type":"Point","accuracy":5.0,"coordinates":[-43.182174, -22.907895]},"type":"text","infobox":{"schedule":"","text":" R Silva Jardim, 32 - Centro Rio de Janeiro - RJ","homepage":""}}
{"scenarioId":11,"title":"Bourbon Residence Barra Premium","text":"","userId":27,"loc":{"type":"Point","accuracy":5.0,"coordinates":[-43.395409, -23.001523]},"type":"text","infobox":{"schedule":"","text":" Av Malibu, 1355 - Barra da Tijuca Rio de Janeiro - RJ","homepage":""}}
{"scenarioId":11,"title":"Casa 53 Santa Tereza","text":"","userId":27,"loc":{"type":"Point","accuracy":5.0,"coordinates":[-43.209587, -22.904]},"type":"text","infobox":{"schedule":"","text":" Rua Gonçalves Fontes, 53 Rio de Janeiro - RJ","homepage":""}}
{"scenarioId":11,"title":"Praia do Pontal Apart Hotel","text":"","userId":27,"loc":{"type":"Point","accuracy":5.0,"coordinates":[-43.48009300017169, -23.030680054815047]},"type":"text","infobox":{"schedule":"","text":" Estrada do Pontal, 7535 - Recreio dos Bandeirantes Rio de Janeiro - RJ","homepage":""}}
{"scenarioId":11,"title":"Mercure Rio de Janeiro Leblon","text":"","userId":27,"loc":{"type":"Point","accuracy":5.0,"coordinates":[-43.222255, -22.984326]},"type":"text","infobox":{"schedule":"","text":" R João Lira, 95 - Leblon Rio de Janeiro - RJ","homepage":""}}
{"scenarioId":11,"title":"Mercure Rio de Janeiro Botafogo","text":"","userId":27,"loc":{"type":"Point","accuracy":5.0,"coordinates":[-43.190086, -22.9525636]},"type":"text","infobox":{"schedule":"","text":" Rua Sorocaba, 305 Rio de Janeiro - RJ","homepage":""}}
{"scenarioId":11,"title":"Pousada Recreio Rio Paraiso","text":"","userId":27,"loc":{"type":"Point","accuracy":5.0,"coordinates":[-43.4473492, -23.0119737]},"type":"text","infobox":{"schedule":"","text":" Rua Gelson Fonseca, 221 Rio de Janeiro - RJ","homepage":""}}
{"scenarioId":11,"title":"Buzios Casa 4","text":"","userId":27,"loc":{"type":"Point","accuracy":5.0,"coordinates":[-43.1971209, -22.9540056]},"type":"text","infobox":{"schedule":"","text":" Rua Humaita, 15 Rio de Janeiro - RJ","homepage":""}}
{"scenarioId":11,"title":"Ibis Rio de Janeiro Santos Dumont","text":"","userId":27,"loc":{"type":"Point","accuracy":5.0,"coordinates":[-43.1698331, -22.9082344]},"type":"text","infobox":{"schedule":"","text":" Av. Marechal Câmara, 280 - Centro Rio de Janeiro - RJ","homepage":""}}
{"scenarioId":11,"title":"Ibis Rio de Janeiro Centro","text":"","userId":27,"loc":{"type":"Point","accuracy":5.0,"coordinates":[-43.182174, -22.907895]},"type":"text","infobox":{"schedule":"","text":" R Silva Jardim, 32 - Centro Rio de Janeiro - RJ","homepage":""}}
{"scenarioId":11,"title":"Novotel Rio de Janeiro Santos Dumont","text":"","userId":27,"loc":{"type":"Point","accuracy":5.0,"coordinates":[-43.16978931427, -22.9080208698112]},"type":"text","infobox":{"schedule":"","text":" Av. Marechal Câmara, 300 - Centro Rio de Janeiro - RJ","homepage":""}}
{"scenarioId":11,"title":"Che Lagarto Copacabana Suites","text":"","userId":27,"loc":{"type":"Point","accuracy":5.0,"coordinates":[-43.1918495, -22.9662218]},"type":"text","infobox":{"schedule":"","text":" Rua Santa Clara, 304 - Copacabana Rio de Janeiro - RJ","homepage":""}}
{"scenarioId":11,"title":"Mirasol Copacabana Hotel","text":"","userId":27,"loc":{"type":"Point","accuracy":5.0,"coordinates":[-43.179305, -22.965418]},"type":"text","infobox":{"schedule":"","text":" Rua Rodolfo Dantas, 86 Rio de Janeiro - RJ","homepage":""}}
{"scenarioId":11,"title":"Jw Marriott Rio de Janeiro","text":"","userId":27,"loc":{"type":"Point","accuracy":5.0,"coordinates":[-43.185291, -22.972342]},"type":"text","infobox":{"schedule":"","text":" Av Atlântica, 2600 - Copacabana Rio de Janeiro - RJ","homepage":""}}
{"scenarioId":11,"title":"Grande Hotel Canada","text":"","userId":27,"loc":{"type":"Point","accuracy":5.0,"coordinates":[-43.186543, -22.970858]},"type":"text","infobox":{"schedule":"","text":" Av Ns de Copacabana, 687 - Copacabana Rio de Janeiro - RJ","homepage":""}}
{"scenarioId":11,"title":"Cabanacopa Hostel, Albergue e Pousada","text":"","userId":27,"loc":{"type":"Point","accuracy":5.0,"coordinates":[-43.180772, -22.96304]},"type":"text","infobox":{"schedule":"","text":" Tv Guimarães Natal, 12 - Copacabana Rio de Janeiro - RJ","homepage":""}}
{"scenarioId":11,"title":"Leme Othon Palace Hotel","text":"","userId":27,"loc":{"type":"Point","accuracy":5.0,"coordinates":[-43.168943, -22.963054]},"type":"text","infobox":{"schedule":"","text":" Av. Atlântica, 656 Rio de Janeiro - RJ","homepage":""}}
{"scenarioId":11,"title":"Fun People Bed And Breakfast","text":"","userId":27,"loc":{"type":"Point","accuracy":5.0,"coordinates":[-43.18071126937866, -22.968458808248617]},"type":"text","infobox":{"schedule":"","text":" Avenida Atlantica Apto. 201, 1918 - Bonsucesso Rio de Janeiro - RJ","homepage":""}}
{"scenarioId":11,"title":"Center Hotel","text":"","userId":27,"loc":{"type":"Point","accuracy":5.0,"coordinates":[-43.179946, -22.899047]},"type":"text","infobox":{"schedule":"","text":" Av. Rio Branco, 33 - Centro Rio de Janeiro - RJ","homepage":""}}
{"scenarioId":11,"title":"Mirador Rio Copacabana Hotel - Rede Mirador","text":"","userId":27,"loc":{"type":"Point","accuracy":5.0,"coordinates":[-43.189101, -22.968735]},"type":"text","infobox":{"schedule":"","text":" Rua Tonelero, 338 Rio de Janeiro - RJ","homepage":""}}
{"scenarioId":11,"title":"Royal Rio Palace Hotel - Rede Mirador","text":"","userId":27,"loc":{"type":"Point","accuracy":5.0,"coordinates":[-43.178571, -22.964409]},"type":"text","infobox":{"schedule":"","text":" Rua Duvivier, 82 Rio de Janeiro - RJ","homepage":""}}
{"scenarioId":11,"title":"Rio Othon Palace","text":"","userId":27,"loc":{"type":"Point","accuracy":5.0,"coordinates":[-43.188854, -22.977742]},"type":"text","infobox":{"schedule":"","text":" Av. Atlântica, 3264 Rio de Janeiro - RJ","homepage":""}}
{"scenarioId":11,"title":"Mykonos Hotel Residência","text":"","userId":27,"loc":{"type":"Point","accuracy":5.0,"coordinates":[-43.4920932, -23.0333781]},"type":"text","infobox":{"schedule":"","text":" Estr. do Pontal, 8000 - Recreio dos Bandeirantes Rio de Janeiro - RJ","homepage":""}}
{"scenarioId":11,"title":"Copacabana Palace","text":"","userId":27,"loc":{"type":"Point","accuracy":5.0,"coordinates":[-43.178976, -22.967681]},"type":"text","infobox":{"schedule":"","text":" Av. Atlântica, 1702 - Copacabana Rio de Janeiro - RJ","homepage":""}}
{"scenarioId":11,"title":"Ibiza Copacabana Hotel","text":"","userId":27,"loc":{"type":"Point","accuracy":5.0,"coordinates":[-43.1763932, -22.9634658]},"type":"text","infobox":{"schedule":"","text":" Rua Belford Roxo, 250 - Copacabana Rio de Janeiro - RJ","homepage":""}}
{"scenarioId":11,"title":"Golden Park Rio","text":"","userId":27,"loc":{"type":"Point","accuracy":5.0,"coordinates":[-43.173975, -22.92229]},"type":"text","infobox":{"schedule":"","text":" R do Russel, 374 - Glória Rio de Janeiro - RJ","homepage":""}}
{"scenarioId":11,"title":"Tulip Inn Copacabana Hotel - Chambertin","text":"","userId":27,"loc":{"type":"Point","accuracy":5.0,"coordinates":[-43.185291, -22.972342]},"type":"text","infobox":{"schedule":"","text":" Avenida Atlantica,, 2554 Rio de Janeiro - RJ","homepage":""}}
{"scenarioId":11,"title":"Rio´s Presidente","text":"","userId":27,"loc":{"type":"Point","accuracy":5.0,"coordinates":[-43.182479, -22.90758]},"type":"text","infobox":{"schedule":"","text":" Rua Pedro I, 19 Rio de Janeiro - RJ","homepage":""}}
{"scenarioId":11,"title":"Ducasse Rio Hotel","text":"","userId":27,"loc":{"type":"Point","accuracy":5.0,"coordinates":[-43.191925, -22.980997]},"type":"text","infobox":{"schedule":"","text":" Rua Sá Ferreira, 76 Rio de Janeiro - RJ","homepage":""}}
{"scenarioId":11,"title":"Mirasol Copacabana Hotel - Rede Mirador","text":"","userId":27,"loc":{"type":"Point","accuracy":5.0,"coordinates":[-43.179305, -22.965418]},"type":"text","infobox":{"schedule":"","text":" Rua Rodolfo Dantas, 86 - Copacabana Rio de Janeiro - RJ","homepage":""}}
{"scenarioId":11,"title":"Atlantis Copacabana Hotel","text":"","userId":27,"loc":{"type":"Point","accuracy":5.0,"coordinates":[-43.192038, -22.9865768]},"type":"text","infobox":{"schedule":"","text":" R. Bulhões de Carvalho, 61 - Copacabana Rio de Janeiro - RJ","homepage":""}}
{"scenarioId":11,"title":"Lancaster Othon Travel","text":"","userId":27,"loc":{"type":"Point","accuracy":5.0,"coordinates":[-43.176911, -22.966554]},"type":"text","infobox":{"schedule":"","text":" Av. Atlântica, 1470 Rio de Janeiro - RJ","homepage":""}}
{"scenarioId":11,"title":"Fasano Rio de Janeiro","text":"","userId":27,"loc":{"type":"Point","accuracy":5.0,"coordinates":[-43.196181, -22.987301]},"type":"text","infobox":{"schedule":"","text":" Av Vieira Souto, 80 (Ipanema) - Ipanema Rio de Janeiro - RJ","homepage":""}}
{"scenarioId":11,"title":"Mercure Apartments Queen Elizabeth","text":"","userId":27,"loc":{"type":"Point","accuracy":5.0,"coordinates":[-43.3171263189042, -22.8033757093059]},"type":"text","infobox":{"schedule":"","text":" Av Rainha Elizabeth da Bélgica, 440 (Ipanema) - Copacabana Rio de Janeiro - RJ","homepage":""}}
{"scenarioId":11,"title":"Rio Roiss","text":"","userId":27,"loc":{"type":"Point","accuracy":5.0,"coordinates":[-43.189562, -22.977599]},"type":"text","infobox":{"schedule":"","text":" Rua Aires Saldanha, 48 (Copacabana) Rio de Janeiro - RJ","homepage":""}}
{"scenarioId":11,"title":"Lips Motel","text":"","userId":27,"loc":{"type":"Point","accuracy":5.0,"coordinates":[-43.177149295806885, -22.91088681169165]},"type":"text","infobox":{"schedule":"","text":" Rua Senador Dantas, 46 - Centro Rio de Janeiro - RJ","homepage":""}}
{"scenarioId":11,"title":"Mc Flats Ipanema Ville Residence","text":"","userId":27,"loc":{"type":"Point","accuracy":5.0,"coordinates":[-43.2030363, -22.9804875]},"type":"text","infobox":{"schedule":"","text":" Rua Almirante Saddock de Sá, 216 - Ipanema Rio de Janeiro - RJ","homepage":""}}
{"scenarioId":11,"title":"Leblon Cupertino House","text":"","userId":27,"loc":{"type":"Point","accuracy":5.0,"coordinates":[-43.220862, -22.982926]},"type":"text","infobox":{"schedule":"","text":" R Cupertino Durão, 139 - Leblon Rio de Janeiro - RJ","homepage":""}}
{"scenarioId":11,"title":"Mediterrâneo Flat","text":"","userId":27,"loc":{"type":"Point","accuracy":5.0,"coordinates":[-43.382182, -22.97048]},"type":"text","infobox":{"schedule":"","text":" R Mário Agostinelli, 285 - Jacarepaguá Rio de Janeiro - RJ","homepage":""}}
{"scenarioId":11,"title":"Vermont","text":"","userId":27,"loc":{"type":"Point","accuracy":5.0,"coordinates":[-43.2024, -22.98435]},"type":"text","infobox":{"schedule":"","text":" Rua Visconde de Pirajá, 254 (Ipanema) Rio de Janeiro - RJ","homepage":""}}
{"scenarioId":11,"title":"Copacabana Praia","text":"","userId":27,"loc":{"type":"Point","accuracy":5.0,"coordinates":[-43.190306, -22.98676]},"type":"text","infobox":{"schedule":"","text":" R Francisco Otaviano, 30 (Copacabana) - Copacabana Rio de Janeiro - RJ","homepage":""}}
{"scenarioId":11,"title":"Rio 180º Suites & Cuisine","text":"","userId":27,"loc":{"type":"Point","accuracy":5.0,"coordinates":[-43.19579, -22.93477]},"type":"text","infobox":{"schedule":"","text":" Rua Dr. Júlio Otoni, 254 (Santa Teresa) - Santa Teresa Rio de Janeiro - RJ","homepage":""}}
{"scenarioId":11,"title":"Ibis Centro","text":"","userId":27,"loc":{"type":"Point","accuracy":5.0,"coordinates":[-43.182174, -22.907895]},"type":"text","infobox":{"schedule":"","text":" R Silva Jardim, 32 - Centro Rio de Janeiro - RJ","homepage":""}}
{"scenarioId":11,"title":"Mercure Apartments Rio de Janeiro Leblon","text":"","userId":27,"loc":{"type":"Point","accuracy":5.0,"coordinates":[-43.222255, -22.984326]},"type":"text","infobox":{"schedule":"","text":" R João Lira, 95 - Leblon Rio de Janeiro - RJ","homepage":""}}
{"scenarioId":11,"title":"Hotel Regina","text":"","userId":27,"loc":{"type":"Point","accuracy":5.0,"coordinates":[-43.1738107, -22.9277005]},"type":"text","infobox":{"schedule":"","text":" R. Ferreira Viana, 29 - Flamengo Rio de Janeiro - RJ","homepage":""}}
{"scenarioId":11,"title":"Gávea Tropical Pousada","text":"","userId":27,"loc":{"type":"Point","accuracy":5.0,"coordinates":[-43.242485, -22.984906]},"type":"text","infobox":{"schedule":"","text":" R Sérgio Porto, 85 - Gávea Rio de Janeiro - RJ","homepage":""}}
{"scenarioId":11,"title":"Mengo Palace Hotel","text":"","userId":27,"loc":{"type":"Point","accuracy":5.0,"coordinates":[-43.175395, -22.927952]},"type":"text","infobox":{"schedule":"","text":" Rua Correia Dutra, 31 - Flamengo Rio de Janeiro - RJ","homepage":""}}
{"scenarioId":11,"title":"Gaivota Barra Hotel","text":"","userId":27,"loc":{"type":"Point","accuracy":5.0,"coordinates":[-43.3086, -23.0116]},"type":"text","infobox":{"schedule":"","text":" Avenida Av Belizário Leite Andrade Neto, 406 - Barra da Tijuca Rio de Janeiro - RJ","homepage":""}}
{"scenarioId":11,"title":"Hotel Marina Palace","text":"","userId":27,"loc":{"type":"Point","accuracy":5.0,"coordinates":[-43.222109, -22.986927]},"type":"text","infobox":{"schedule":"","text":" Av. Delfim Moreira, 630 Rio de Janeiro - RJ","homepage":""}}
{"scenarioId":11,"title":"Caesar Park Rio de Janeiro Ipanema","text":"","userId":27,"loc":{"type":"Point","accuracy":5.0,"coordinates":[-43.2072261, -22.9862897]},"type":"text","infobox":{"schedule":"","text":" Av Vieira Souto, 460 Rio de Janeiro - RJ","homepage":""}}
{"scenarioId":11,"title":"Best Western Rio Copa Hotel","text":"","userId":27,"loc":{"type":"Point","accuracy":5.0,"coordinates":[-43.175119, -22.961641]},"type":"text","infobox":{"schedule":"","text":" Av. Princesa Isabel, 370 - Copacabana Rio de Janeiro - RJ","homepage":""}}
{"scenarioId":11,"title":"Hotel Novo Mundo","text":"","userId":27,"loc":{"type":"Point","accuracy":5.0,"coordinates":[-43.1731, -22.9254]},"type":"text","infobox":{"schedule":"","text":" Praia do Flamengo, 20 Rio de Janeiro - RJ","homepage":""}}
{"scenarioId":11,"title":"Entremares Hotel","text":"","userId":27,"loc":{"type":"Point","accuracy":5.0,"coordinates":[-43.306962, -23.00963]},"type":"text","infobox":{"schedule":"","text":" Av Érico Veríssimo, 846 - Barra da Tijuca Rio de Janeiro - RJ","homepage":""}}
{"scenarioId":11,"title":"Ibis Rio de Janeiro Centro","text":"","userId":27,"loc":{"type":"Point","accuracy":5.0,"coordinates":[-43.182174, -22.907895]},"type":"text","infobox":{"schedule":"","text":" Rua Silva Jardim, 32 Rio de Janeiro - RJ","homepage":""}}
{"scenarioId":11,"title":"Hotel Biarritz","text":"","userId":27,"loc":{"type":"Point","accuracy":5.0,"coordinates":[-43.189562, -22.977599]},"type":"text","infobox":{"schedule":"","text":" Rua Aires Saldanha, 54 Rio de Janeiro - RJ","homepage":""}}
{"scenarioId":11,"title":"Casa do Estudante","text":"","userId":27,"loc":{"type":"Point","accuracy":5.0,"coordinates":[-43.1958767, -22.9811723]},"type":"text","infobox":{"schedule":"","text":" Rua Saint Roman, 167 Rio de Janeiro - RJ","homepage":""}}
{"scenarioId":11,"title":"Mc Flats Arpoador Beach Star","text":"","userId":27,"loc":{"type":"Point","accuracy":5.0,"coordinates":[-43.193549, -22.987557]},"type":"text","infobox":{"schedule":"","text":" R Francisco Otaviano, 155 - Ipanema Rio de Janeiro - RJ","homepage":""}}
{"scenarioId":11,"title":"Estalagem Motel","text":"","userId":27,"loc":{"type":"Point","accuracy":5.0,"coordinates":[-43.235116, -22.995155]},"type":"text","infobox":{"schedule":"","text":" Av Niemeyer, 204 - Vidigal Rio de Janeiro - RJ","homepage":""}}
{"scenarioId":11,"title":"Recreio das Hortênsias Pousada e Albergue","text":"","userId":27,"loc":{"type":"Point","accuracy":5.0,"coordinates":[-43.44449043273926, -22.991246837101507]},"type":"text","infobox":{"schedule":"","text":" Est. dos Bandeirantes, 12315 - Vargem Pequena Rio de Janeiro - RJ","homepage":""}}
{"scenarioId":11,"title":"Barra Beach Hotel Residência","text":"","userId":27,"loc":{"type":"Point","accuracy":5.0,"coordinates":[-43.3096931, -23.0145715]},"type":"text","infobox":{"schedule":"","text":" Avenida do Pepê, 1120 - Barra da Tijuca Rio de Janeiro - RJ","homepage":""}}
{"scenarioId":11,"title":"Lingua Solta Hostel","text":"","userId":27,"loc":{"type":"Point","accuracy":5.0,"coordinates":[-43.178131, -22.89836]},"type":"text","infobox":{"schedule":"","text":" R Candelária, 106 - Centro Rio de Janeiro - RJ","homepage":""}}
{"scenarioId":11,"title":"Hostel Arco Verde","text":"","userId":27,"loc":{"type":"Point","accuracy":5.0,"coordinates":[-43.17859768867493, -22.959608428059198]},"type":"text","infobox":{"schedule":"","text":" Rua Coelho Cintra, 250 - Portuguesa Rio de Janeiro - RJ","homepage":""}}
{"scenarioId":11,"title":"Mercure Apartments Rio de Janeiro Ipanema","text":"","userId":27,"loc":{"type":"Point","accuracy":5.0,"coordinates":[-43.19390774, -22.98557756]},"type":"text","infobox":{"schedule":"","text":" Av Rainha Elizabeth da Bélgica, 440 Rio de Janeiro - RJ","homepage":""}}
{"scenarioId":11,"title":"Premier Copacabana Hotel","text":"","userId":27,"loc":{"type":"Point","accuracy":5.0,"coordinates":[-43.187039, -22.967564]},"type":"text","infobox":{"schedule":"","text":" Rua Tonelero, 205 Rio de Janeiro - RJ","homepage":""}}
{"scenarioId":11,"title":"Promenade Palladium","text":"","userId":27,"loc":{"type":"Point","accuracy":5.0,"coordinates":[-43.2255885, -22.9856541]},"type":"text","infobox":{"schedule":"","text":" Av. General Artigas, 200 Rio de Janeiro - RJ","homepage":""}}
{"scenarioId":11,"title":"Mar Palace Copacabana Hotel","text":"","userId":27,"loc":{"type":"Point","accuracy":5.0,"coordinates":[-43.1843983, -22.9689554]},"type":"text","infobox":{"schedule":"","text":" Av. Nossa Senhora de Copacabana, 552 - Copacabana Rio de Janeiro - RJ","homepage":""}}
{"scenarioId":11,"title":"Arena Copacabana Hotel","text":"","userId":27,"loc":{"type":"Point","accuracy":5.0,"coordinates":[-43.181262, -22.969082]},"type":"text","infobox":{"schedule":"","text":" Rua Hilário de Gouveia, 2064 Rio de Janeiro - RJ","homepage":""}}
{"scenarioId":11,"title":"Promenade Paradiso All Suites","text":"","userId":27,"loc":{"type":"Point","accuracy":5.0,"coordinates":[-43.3204, -23.0050524]},"type":"text","infobox":{"schedule":"","text":" Avenida das Américas, 487 - Barra da Tijuca Rio de Janeiro - RJ","homepage":""}}
{"scenarioId":11,"title":"Hotel Laranjeiras","text":"","userId":27,"loc":{"type":"Point","accuracy":5.0,"coordinates":[-43.190313, -22.937128]},"type":"text","infobox":{"schedule":"","text":" R das Laranjeiras, 394 - Laranjeiras Rio de Janeiro - RJ","homepage":""}}
{"scenarioId":11,"title":"Angrense Hotel","text":"","userId":27,"loc":{"type":"Point","accuracy":5.0,"coordinates":[-43.1876421, -22.97177868]},"type":"text","infobox":{"schedule":"","text":" Travessa Angrense, 25 - Copacabana Rio de Janeiro - RJ","homepage":""}}
{"scenarioId":11,"title":"Hotel Monte Alegre","text":"","userId":27,"loc":{"type":"Point","accuracy":5.0,"coordinates":[-43.187811, -22.914932]},"type":"text","infobox":{"schedule":"","text":" Rua Riachuelo, 213 Rio de Janeiro - RJ","homepage":""}}
{"scenarioId":11,"title":"Windsor Martinique","text":"","userId":27,"loc":{"type":"Point","accuracy":5.0,"coordinates":[-43.190678, -22.980774]},"type":"text","infobox":{"schedule":"","text":" Rua Sá Ferreira, 30 Rio de Janeiro - RJ","homepage":""}}
{"scenarioId":11,"title":"Everest Park","text":"","userId":27,"loc":{"type":"Point","accuracy":5.0,"coordinates":[-43.207193, -22.985732]},"type":"text","infobox":{"schedule":"","text":" R Maria Quitéria, 19 - Ipanema Rio de Janeiro - RJ","homepage":""}}
{"scenarioId":11,"title":"Copacabana Praia Hotel","text":"","userId":27,"loc":{"type":"Point","accuracy":5.0,"coordinates":[-43.190306, -22.98676]},"type":"text","infobox":{"schedule":"","text":" R Francisco Otaviano, 30 - Copacabana Rio de Janeiro - RJ","homepage":""}}
{"scenarioId":11,"title":"Promenade Princess Copacabana","text":"","userId":27,"loc":{"type":"Point","accuracy":5.0,"coordinates":[-43.190807, -22.976752]},"type":"text","infobox":{"schedule":"","text":" Rua Xavier da Silveira, 58 Rio de Janeiro - RJ","homepage":""}}
{"scenarioId":11,"title":"Copa Sul Hotel","text":"","userId":27,"loc":{"type":"Point","accuracy":5.0,"coordinates":[-43.190836, -22.983158]},"type":"text","infobox":{"schedule":"","text":" Av. Nossa Sra Copacabana, 1284 - Copacabana Rio de Janeiro - RJ","homepage":""}}
{"scenarioId":11,"title":"Casa Amarelo","text":"","userId":27,"loc":{"type":"Point","accuracy":5.0,"coordinates":[-43.182992, -22.916183]},"type":"text","infobox":{"schedule":"","text":" R Joaquim Murtinho, 569 Santa Teresa - Santa Teresa Rio de Janeiro - RJ","homepage":""}}
{"scenarioId":11,"title":"Windsor Miramar Palace","text":"","userId":27,"loc":{"type":"Point","accuracy":5.0,"coordinates":[-43.18986, -22.981305]},"type":"text","infobox":{"schedule":"","text":" Av. Atlântica, 3668 - Copacabana Rio de Janeiro - RJ","homepage":""}}
{"scenarioId":11,"title":"Sheraton Rio Hotel & Resort","text":"","userId":27,"loc":{"type":"Point","accuracy":5.0,"coordinates":[-43.22622299, -22.98873816]},"type":"text","infobox":{"schedule":"","text":" Av. Niemeyer, 121 Rio de Janeiro - RJ","homepage":""}}
{"scenarioId":11,"title":"Pontal Beach Hostel","text":"","userId":27,"loc":{"type":"Point","accuracy":5.0,"coordinates":[-43.4776291251183, -23.0309636332705]},"type":"text","infobox":{"schedule":"","text":" Avenida Paulo Tapajós, 6 - Recreio dos Bandeirantes Rio de Janeiro - RJ","homepage":""}}
{"scenarioId":11,"title":"Copa Hostel","text":"","userId":27,"loc":{"type":"Point","accuracy":5.0,"coordinates":[-43.1907963752747, -22.9790526536093]},"type":"text","infobox":{"schedule":"","text":" Av. Nossa Senhora de Copacabana, 687 - Copacabana Rio de Janeiro - RJ","homepage":""}}
{"scenarioId":11,"title":"Hotel Champanhe","text":"","userId":27,"loc":{"type":"Point","accuracy":5.0,"coordinates":[-43.1907762, -22.9111082]},"type":"text","infobox":{"schedule":"","text":" Rua do Senado, 62\/64 - Centro Rio de Janeiro - RJ","homepage":""}}
{"scenarioId":11,"title":"Midway Motel","text":"","userId":27,"loc":{"type":"Point","accuracy":5.0,"coordinates":[-43.1846809387207, -22.9093846703992]},"type":"text","infobox":{"schedule":"","text":" Rua do Senado, 274 - Centro Rio de Janeiro - RJ","homepage":""}}
{"scenarioId":11,"title":"Scorial Rio Hotel","text":"","userId":27,"loc":{"type":"Point","accuracy":5.0,"coordinates":[-43.1794667243958, -22.9297412218642]},"type":"text","infobox":{"schedule":"","text":" Rua Bento Lisboa 155, Flamengo - Tanque Rio de Janeiro - RJ","homepage":""}}
{"scenarioId":11,"title":"Hotel Beija Flor","text":"","userId":27,"loc":{"type":"Point","accuracy":5.0,"coordinates":[-43.1745142, -22.9274222]},"type":"text","infobox":{"schedule":"","text":" Rua Ferreira Viana, 81 - Flamengo Rio de Janeiro - RJ","homepage":""}}
{"scenarioId":11,"title":"El Misti House Copacabana","text":"","userId":27,"loc":{"type":"Point","accuracy":5.0,"coordinates":[-43.186541, -22.968144]},"type":"text","infobox":{"schedule":"","text":" Rua Tonelero, 49 - Copacabana Rio de Janeiro - RJ","homepage":""}}
{"scenarioId":11,"title":"Elegance Motel","text":"","userId":27,"loc":{"type":"Point","accuracy":5.0,"coordinates":[-43.1743471, -22.9282411]},"type":"text","infobox":{"schedule":"","text":" Rua Correa Dutra, 19 - Flamengo Rio de Janeiro - RJ","homepage":""}}
{"scenarioId":11,"title":"Pousada da Bruna Copacabana","text":"","userId":27,"loc":{"type":"Point","accuracy":5.0,"coordinates":[-43.1856089830399, -22.9671112433226]},"type":"text","infobox":{"schedule":"","text":" Rua Tonelero, 205 - Copacabana Rio de Janeiro - RJ","homepage":""}}
{"scenarioId":11,"title":"Hotel Copacabana Residência","text":"","userId":27,"loc":{"type":"Point","accuracy":5.0,"coordinates":[-43.18101, -22.965554]},"type":"text","infobox":{"schedule":"","text":" Rua Barata Ribeiro, 222 Rio de Janeiro - RJ","homepage":""}}
{"scenarioId":11,"title":"Atlântico Sul Hotel","text":"","userId":27,"loc":{"type":"Point","accuracy":5.0,"coordinates":[-43.4718792, -23.0309351]},"type":"text","infobox":{"schedule":"","text":" Avenida Lucio Costa, 18000 Rio de Janeiro - RJ","homepage":""}}
{"scenarioId":11,"title":"Colinas Residência","text":"","userId":27,"loc":{"type":"Point","accuracy":5.0,"coordinates":[-43.194972, -22.98309808095238]},"type":"text","infobox":{"schedule":"","text":" Rua Saint Roman, 338 - Copacabana Rio de Janeiro - RJ","homepage":""}}
{"scenarioId":11,"title":"Edifício Jucati","text":"","userId":27,"loc":{"type":"Point","accuracy":5.0,"coordinates":[-43.209587, -22.904]},"type":"text","infobox":{"schedule":"","text":" Rua Tenente Marones de Gusmão, 85 - Copacabana Rio de Janeiro - RJ","homepage":""}}
{"scenarioId":11,"title":"Tryp Hotel Barra Rio de Janeiro","text":"","userId":27,"loc":{"type":"Point","accuracy":5.0,"coordinates":[-43.209587, -22.904]},"type":"text","infobox":{"schedule":"","text":" 7897 Avenue das Americas Barra da Tijuca, S\/N - None Rio de Janeiro - RJ","homepage":""}}
{"scenarioId":11,"title":"Ocean Drive Resort & Services","text":"","userId":27,"loc":{"type":"Point","accuracy":5.0,"coordinates":[-43.4706922, -23.0321971]},"type":"text","infobox":{"schedule":"","text":" Av. Sernambetiba, 6900 - Barra da Tijuca Rio de Janeiro - RJ","homepage":""}}
{"scenarioId":11,"title":"Bed & Breakfast Vitoria","text":"","userId":27,"loc":{"type":"Point","accuracy":5.0,"coordinates":[-43.2090009, -22.9315604]},"type":"text","infobox":{"schedule":"","text":" Rua Vit&#, 243 - Lagoa Rio de Janeiro - RJ","homepage":""}}
{"scenarioId":11,"title":"Barra Palace Hotel Residência","text":"","userId":27,"loc":{"type":"Point","accuracy":5.0,"coordinates":[-43.321517, -23.011611]},"type":"text","infobox":{"schedule":"","text":" Av. Sernambetiba, 2916 - Barra da Tijuca Rio de Janeiro - RJ","homepage":""}}
{"scenarioId":11,"title":"Lancaster Othon Travel","text":"","userId":27,"loc":{"type":"Point","accuracy":5.0,"coordinates":[-43.209587, -22.904]},"type":"text","infobox":{"schedule":"","text":" Av. Atlântica, 1470 Rio de Janeiro - RJ","homepage":""}}
{"scenarioId":11,"title":"Atlântico Copacabana","text":"","userId":27,"loc":{"type":"Point","accuracy":5.0,"coordinates":[-43.1861759, -22.9671106]},"type":"text","infobox":{"schedule":"","text":" Rua Siqueira Campos, 90 Rio de Janeiro - RJ","homepage":""}}
{"scenarioId":11,"title":"Atlantis Copacabana Hotel","text":"","userId":27,"loc":{"type":"Point","accuracy":5.0,"coordinates":[-43.209587, -22.904]},"type":"text","infobox":{"schedule":"","text":" Rua Bulhoes de Carvalho, 61 Rio de Janeiro - RJ","homepage":""}}
{"scenarioId":11,"title":"Viña Del Mar Hotel","text":"","userId":27,"loc":{"type":"Point","accuracy":5.0,"coordinates":[-43.17861338665667, -22.915930250824587]},"type":"text","infobox":{"schedule":"","text":" Rua Joaquim Silva, 57 Rio de Janeiro - RJ","homepage":""}}
{"scenarioId":11,"title":"Rio Guesthouse","text":"","userId":27,"loc":{"type":"Point","accuracy":5.0,"coordinates":[-43.209587, -22.904]},"type":"text","infobox":{"schedule":"","text":" R. Francisco Sá, 5 - Copacabana Rio de Janeiro - RJ","homepage":""}}
{"scenarioId":11,"title":"Pestana Rio Atlântica Hotel","text":"","userId":27,"loc":{"type":"Point","accuracy":5.0,"coordinates":[-43.209587, -22.904]},"type":"text","infobox":{"schedule":"","text":" Av. Atlântica, 2964 - Copacabana Rio de Janeiro - RJ","homepage":""}}
{"scenarioId":11,"title":"Eco Hostel","text":"","userId":27,"loc":{"type":"Point","accuracy":5.0,"coordinates":[-43.209587, -22.904]},"type":"text","infobox":{"schedule":"","text":" Av. Nossa Senhora de Copacabana, 39 1º andar - Copacabana Rio de Janeiro - RJ","homepage":""}}
{"scenarioId":11,"title":"Rio Aplauso Hostel Rio de Janeiro","text":"","userId":27,"loc":{"type":"Point","accuracy":5.0,"coordinates":[-43.209587, -22.904]},"type":"text","infobox":{"schedule":"","text":" Rua Francisco Muratori N&#, 176 - Lapa Rio de Janeiro - RJ","homepage":""}}
{"scenarioId":11,"title":"Bed & Breakfast Copacabana Dulce","text":"","userId":27,"loc":{"type":"Point","accuracy":5.0,"coordinates":[-43.18915610535714, -22.97380770892857]},"type":"text","infobox":{"schedule":"","text":" Rua Constante Ramos, S\/N - Copacabana Rio de Janeiro - RJ","homepage":""}}
{"scenarioId":11,"title":"Mc Flats Ipanema Pax","text":"","userId":27,"loc":{"type":"Point","accuracy":5.0,"coordinates":[-43.209587, -22.904]},"type":"text","infobox":{"schedule":"","text":" Rua Barão da Torre, 292 - Ipanema Rio de Janeiro - RJ","homepage":""}}
{"scenarioId":11,"title":"Astoria Copacabana Hotel","text":"","userId":27,"loc":{"type":"Point","accuracy":5.0,"coordinates":[-43.209587, -22.904]},"type":"text","infobox":{"schedule":"","text":" Rua Bulhoes de Carvalho, 345 Rio de Janeiro - RJ","homepage":""}}
{"scenarioId":11,"title":"Arena Copacabana Hotel","text":"","userId":27,"loc":{"type":"Point","accuracy":5.0,"coordinates":[-43.209587, -22.904]},"type":"text","infobox":{"schedule":"","text":" Rua Bulhoes de Carvalho, 2064 Rio de Janeiro - RJ","homepage":""}}
{"scenarioId":11,"title":"Jw Marriott Hotel Rio de Janeiro","text":"","userId":27,"loc":{"type":"Point","accuracy":5.0,"coordinates":[-43.209587, -22.904]},"type":"text","infobox":{"schedule":"","text":" Av. Atlântica, 2600 - Copacabana Rio de Janeiro - RJ","homepage":""}}
{"scenarioId":11,"title":"Parque Hotel Rio","text":"","userId":27,"loc":{"type":"Point","accuracy":5.0,"coordinates":[-43.209587, -22.904]},"type":"text","infobox":{"schedule":"","text":" Rua Men de Sá, 343 - Centro Rio de Janeiro - RJ","homepage":""}}
{"scenarioId":11,"title":"Sheraton Rio Hotel & Resort","text":"","userId":27,"loc":{"type":"Point","accuracy":5.0,"coordinates":[-43.227581975675676, -22.989357221621624]},"type":"text","infobox":{"schedule":"","text":" Av. Niemeyer, 121 Rio de Janeiro - RJ","homepage":""}}
{"scenarioId":11,"title":"Bellas Artes Guest House","text":"","userId":27,"loc":{"type":"Point","accuracy":5.0,"coordinates":[-43.209587, -22.904]},"type":"text","infobox":{"schedule":"","text":" Rua Andrés Belo, 15 - Santa Teresa Rio de Janeiro - RJ","homepage":""}}
{"scenarioId":11,"title":"Porto Bay Rio International","text":"","userId":27,"loc":{"type":"Point","accuracy":5.0,"coordinates":[-43.209587, -22.904]},"type":"text","infobox":{"schedule":"","text":" Avenida Atlântica, 1500 Rio de Janeiro - RJ","homepage":""}}
{"scenarioId":11,"title":"Hotel Inglês","text":"","userId":27,"loc":{"type":"Point","accuracy":5.0,"coordinates":[-43.1785307, -22.9258105]},"type":"text","infobox":{"schedule":"","text":" Rua Silveira Martins, 20 - Flamengo Rio de Janeiro - RJ","homepage":""}}
{"scenarioId":11,"title":"Praia Ipanema Hotel","text":"","userId":27,"loc":{"type":"Point","accuracy":5.0,"coordinates":[-43.209587, -22.904]},"type":"text","infobox":{"schedule":"","text":" Av. Vieira Souti, 706 - Ipanema Rio de Janeiro - RJ","homepage":""}}
{"scenarioId":11,"title":"Copacabana Hotel Residência","text":"","userId":27,"loc":{"type":"Point","accuracy":5.0,"coordinates":[-43.18108536617647, -22.965605423529414]},"type":"text","infobox":{"schedule":"","text":" Rua Barata Ribeiro, 222 Rio de Janeiro - RJ","homepage":""}}
{"scenarioId":11,"title":"Ipanema Inn Hotel","text":"","userId":27,"loc":{"type":"Point","accuracy":5.0,"coordinates":[-43.209587, -22.904]},"type":"text","infobox":{"schedule":"","text":" Rua Maria Quitéria, 27- ipanema - None Rio de Janeiro - RJ","homepage":""}}
{"scenarioId":11,"title":"Orla Copacabana Hotel","text":"","userId":27,"loc":{"type":"Point","accuracy":5.0,"coordinates":[-43.209587, -22.904]},"type":"text","infobox":{"schedule":"","text":" Rua Bulhoes de Carvalho, 4122 Rio de Janeiro - RJ","homepage":""}}
{"scenarioId":11,"title":"Best Western Augusto's Rio Copa Hotel","text":"","userId":27,"loc":{"type":"Point","accuracy":5.0,"coordinates":[-43.1751148, -22.961648377777777]},"type":"text","infobox":{"schedule":"","text":" Av. Princesa Isabel, 370 - Copacabana Rio de Janeiro - RJ","homepage":""}}
{"scenarioId":11,"title":"B&b Santa Teresa Iva","text":"","userId":27,"loc":{"type":"Point","accuracy":5.0,"coordinates":[-43.209587, -22.904]},"type":"text","infobox":{"schedule":"","text":" Ladeira Santa Teresa, 142 - Santa Teresa Rio de Janeiro - RJ","homepage":""}}
{"scenarioId":11,"title":"Protel Alfabarra Sunset Drive","text":"","userId":27,"loc":{"type":"Point","accuracy":5.0,"coordinates":[-43.4706922, -23.0321971]},"type":"text","infobox":{"schedule":"","text":" Av. Sernambetiba, 9550 - Barra da Tijuca Rio de Janeiro - RJ","homepage":""}}
{"scenarioId":11,"title":"Hotel Praia Linda","text":"","userId":27,"loc":{"type":"Point","accuracy":5.0,"coordinates":[-43.209587, -22.904]},"type":"text","infobox":{"schedule":"","text":" Av. Nossa Senhora de Copacabana, 1430 - Copacabana Rio de Janeiro - RJ","homepage":""}}
{"scenarioId":11,"title":"B&b Copacabana Suite","text":"","userId":27,"loc":{"type":"Point","accuracy":5.0,"coordinates":[-43.209587, -22.904]},"type":"text","infobox":{"schedule":"","text":" Avda Princesa Isabel, 500 - Leme Rio de Janeiro - RJ","homepage":""}}
{"scenarioId":11,"title":"Tr Flats - Leblon","text":"","userId":27,"loc":{"type":"Point","accuracy":5.0,"coordinates":[-43.2221112, -22.9804556]},"type":"text","infobox":{"schedule":"","text":" Rua Adalberto Ferreira, 46 - None Rio de Janeiro - RJ","homepage":""}}
{"scenarioId":11,"title":"Portinari Design Hotel","text":"","userId":27,"loc":{"type":"Point","accuracy":5.0,"coordinates":[-43.209587, -22.904]},"type":"text","infobox":{"schedule":"","text":" Rua Francisco Sá, 17 posto 6 - Copacabana Rio de Janeiro - RJ","homepage":""}}
{"scenarioId":11,"title":"Ibis Rio de Janeiro Copacabana","text":"","userId":27,"loc":{"type":"Point","accuracy":5.0,"coordinates":[-43.17859401212121, -22.96483852534435]},"type":"text","infobox":{"schedule":"","text":" R Min Viveiros de Castro, 134 Rio de Janeiro - RJ","homepage":""}}
{"scenarioId":11,"title":"Che Lagarto Hostel Suites Anita","text":"","userId":27,"loc":{"type":"Point","accuracy":5.0,"coordinates":[-43.18903513809524, -22.967883634013607]},"type":"text","infobox":{"schedule":"","text":" Rua Anita Garibaldi, 87 - Copacabana Rio de Janeiro - RJ","homepage":""}}
{"scenarioId":11,"title":"Ramada Hotel And Suites Rio de Janeiro","text":"","userId":27,"loc":{"type":"Point","accuracy":5.0,"coordinates":[-43.209587, -22.904]},"type":"text","infobox":{"schedule":"","text":" 500 Salvador Allende Avenue, S\/N - None Rio de Janeiro - RJ","homepage":""}}
{"scenarioId":11,"title":"Santa Teresa Central Hostel","text":"","userId":27,"loc":{"type":"Point","accuracy":5.0,"coordinates":[-43.209587, -22.904]},"type":"text","infobox":{"schedule":"","text":" Ladeira Santa Tereza, 121 - None Rio de Janeiro - RJ","homepage":""}}
{"scenarioId":11,"title":"Protel Rio Flat Service","text":"","userId":27,"loc":{"type":"Point","accuracy":5.0,"coordinates":[-43.21876372173913, -22.984536773913042]},"type":"text","infobox":{"schedule":"","text":" Rua Almirante Guilhem, S\/N - None Rio de Janeiro - RJ","homepage":""}}
{"scenarioId":11,"title":"B&b Copacabana Vera","text":"","userId":27,"loc":{"type":"Point","accuracy":5.0,"coordinates":[-43.209587, -22.904]},"type":"text","infobox":{"schedule":"","text":" Copacabana Rua Leopoldo Miguez, S\/N - None Rio de Janeiro - RJ","homepage":""}}
{"scenarioId":11,"title":"Barraleme Hotel Residência","text":"","userId":27,"loc":{"type":"Point","accuracy":5.0,"coordinates":[-43.4706922, -23.0321971]},"type":"text","infobox":{"schedule":"","text":" Av. Sernambetiba, 600 - Barra da Tijuca Rio de Janeiro - RJ","homepage":""}}
{"scenarioId":11,"title":"Miramar Hotel By Windsor","text":"","userId":27,"loc":{"type":"Point","accuracy":5.0,"coordinates":[-43.189864679584154, -22.981319475247524]},"type":"text","infobox":{"schedule":"","text":" Av. Atlântica, 3668 Rio de Janeiro - RJ","homepage":""}}
{"scenarioId":11,"title":"Mercure Rio de Janeiro Arpoador Hotel","text":"","userId":27,"loc":{"type":"Point","accuracy":5.0,"coordinates":[-43.19060067201834, -22.986834115137615]},"type":"text","infobox":{"schedule":"","text":" Rua Francisco Otaviano, 61 - Copacabana Rio de Janeiro - RJ","homepage":""}}
{"scenarioId":11,"title":"El Misti Hostel & Pousada Copacabana","text":"","userId":27,"loc":{"type":"Point","accuracy":5.0,"coordinates":[-43.192512961403516, -22.972335775438598]},"type":"text","infobox":{"schedule":"","text":" Travessa Frederico Pamplona, 20 - Copacabana Rio de Janeiro - RJ","homepage":""}}
{"scenarioId":11,"title":"Rio's Presidente Hotel Rio de Janeiro","text":"","userId":27,"loc":{"type":"Point","accuracy":5.0,"coordinates":[-43.47793999057203, -22.895197211228815]},"type":"text","infobox":{"schedule":"","text":" Rua Dom Pedro I, 19 - None Rio de Janeiro - RJ","homepage":""}}
{"scenarioId":11,"title":"Hotel O.k.","text":"","userId":27,"loc":{"type":"Point","accuracy":5.0,"coordinates":[-43.176829350000006, -22.9114104]},"type":"text","infobox":{"schedule":"","text":" Rua Senador Dantas, 24 Rio de Janeiro - RJ","homepage":""}}
{"scenarioId":11,"title":"Rio Your Apartment","text":"","userId":27,"loc":{"type":"Point","accuracy":5.0,"coordinates":[-43.209587, -22.904]},"type":"text","infobox":{"schedule":"","text":" Avenida Atlântica, 3332 - None Rio de Janeiro - RJ","homepage":""}}
{"scenarioId":11,"title":"Hotel Rondônia Palace","text":"","userId":27,"loc":{"type":"Point","accuracy":5.0,"coordinates":[-43.17691935676198, -22.92833130594281]},"type":"text","infobox":{"schedule":"","text":" Rua Buarque de Macedo, 60 Rio de Janeiro - RJ","homepage":""}}
{"scenarioId":11,"title":"B&b Copacabana Marcia","text":"","userId":27,"loc":{"type":"Point","accuracy":5.0,"coordinates":[-43.1899009, -22.9706706]},"type":"text","infobox":{"schedule":"","text":" Rua Raimundo Correia, 100 - Copacabana Rio de Janeiro - RJ","homepage":""}}
{"scenarioId":11,"title":"Windsor Asturias Hotel","text":"","userId":27,"loc":{"type":"Point","accuracy":5.0,"coordinates":[-43.176551135714284, -22.911850935714288]},"type":"text","infobox":{"schedule":"","text":" Rua Senador Dantas, 14 Rio de Janeiro - RJ","homepage":""}}
{"scenarioId":11,"title":"Motel Fênix","text":"","userId":27,"loc":{"type":"Point","accuracy":5.0,"coordinates":[-43.18809819240654, -22.910204261565422]},"type":"text","infobox":{"schedule":"","text":" Rua do Senado, 189 Rio de Janeiro - RJ","homepage":""}}
{"scenarioId":11,"title":"Atlântico Flat Service","text":"","userId":27,"loc":{"type":"Point","accuracy":5.0,"coordinates":[-43.6990746, -22.9340641]},"type":"text","infobox":{"schedule":"","text":" Rua Santa Clara, 15 - Copacabana Rio de Janeiro - RJ","homepage":""}}
{"scenarioId":11,"title":"Mercure Rio de Janeiro Leblon Hotel","text":"","userId":27,"loc":{"type":"Point","accuracy":5.0,"coordinates":[-43.209587, -22.904]},"type":"text","infobox":{"schedule":"","text":" Rua Joao Lira, 95 Rio de Janeiro - RJ","homepage":""}}
{"scenarioId":11,"title":"Castro Alves Othon Travel","text":"","userId":27,"loc":{"type":"Point","accuracy":5.0,"coordinates":[-43.209587, -22.904]},"type":"text","infobox":{"schedule":"","text":" Av. Nossa Senhora de Copacabana, 552 - Copacabana Rio de Janeiro - RJ","homepage":""}}
{"scenarioId":11,"title":"Rio Hostel Ipanema","text":"","userId":27,"loc":{"type":"Point","accuracy":5.0,"coordinates":[-43.209587, -22.904]},"type":"text","infobox":{"schedule":"","text":" Rua Caning, 18 - None Rio de Janeiro - RJ","homepage":""}}
{"scenarioId":11,"title":"Hotel Ibis Rio de Janeiro Santos Dumont","text":"","userId":27,"loc":{"type":"Point","accuracy":5.0,"coordinates":[-43.170120040647745, -22.907555303431884]},"type":"text","infobox":{"schedule":"","text":" Av. Marechal Câmara, 280 - Centro Rio de Janeiro - RJ","homepage":""}}
{"scenarioId":11,"title":"Hotel Americano","text":"","userId":27,"loc":{"type":"Point","accuracy":5.0,"coordinates":[-43.209587, -22.904]},"type":"text","infobox":{"schedule":"","text":" Rua Joqauim Silva, 69 - Lapa Rio de Janeiro - RJ","homepage":""}}
{"scenarioId":11,"title":"Rio Your Apartment 6","text":"","userId":27,"loc":{"type":"Point","accuracy":5.0,"coordinates":[-43.19603839031207, -22.984678464788075]},"type":"text","infobox":{"schedule":"","text":" Rua Visconde de Pirajá, 11 Rio de Janeiro - RJ","homepage":""}}
{"scenarioId":11,"title":"Casa de Wanderley","text":"","userId":27,"loc":{"type":"Point","accuracy":5.0,"coordinates":[-43.19001900000001, -22.9172406]},"type":"text","infobox":{"schedule":"","text":" Rua do Oriente, 5 Rio de Janeiro - RJ","homepage":""}}
{"scenarioId":11,"title":"Vermont","text":"","userId":27,"loc":{"type":"Point","accuracy":5.0,"coordinates":[-43.201749914027154, -22.98330525580694]},"type":"text","infobox":{"schedule":"","text":" Rua Visconde de Pirajá, 225 Rio de Janeiro - RJ","homepage":""}}
{"scenarioId":11,"title":"Quinta Azul Boutique Pousada","text":"","userId":27,"loc":{"type":"Point","accuracy":5.0,"coordinates":[-43.1848057, -22.9202505]},"type":"text","infobox":{"schedule":"","text":" R Alm Alexandrino, 168 - Santa Teresa Rio de Janeiro - RJ","homepage":""}}
{"scenarioId":11,"title":"Augusto's Paysandu","text":"","userId":27,"loc":{"type":"Point","accuracy":5.0,"coordinates":[-43.17530869042146, -22.93344607337165]},"type":"text","infobox":{"schedule":"","text":" R Paissandu, 23 - Flamengo Rio de Janeiro - RJ","homepage":""}}
{"scenarioId":11,"title":"Hotel Copacabana Hotel Residência - Atlantica","text":"","userId":27,"loc":{"type":"Point","accuracy":5.0,"coordinates":[-43.18111574117647, -22.96562642352941]},"type":"text","infobox":{"schedule":"","text":" Rua Barata Ribeiro, 224 Rio de Janeiro - RJ","homepage":""}}
{"scenarioId":11,"title":"Augusto´s Copacabana Hotel","text":"","userId":27,"loc":{"type":"Point","accuracy":5.0,"coordinates":[-43.19167962631579, -22.975702805263158]},"type":"text","infobox":{"schedule":"","text":" Rua Bolivar, 122 Rio de Janeiro - RJ","homepage":""}}
{"scenarioId":11,"title":"Copacabana Mar Hotel","text":"","userId":27,"loc":{"type":"Point","accuracy":5.0,"coordinates":[-43.1772308, -22.9642557]},"type":"text","infobox":{"schedule":"","text":" Rua Belford Roxo, 205 Rio de Janeiro - RJ","homepage":""}}
{"scenarioId":11,"title":"Best Western Augustos Rio Copa Hotel","text":"","userId":27,"loc":{"type":"Point","accuracy":5.0,"coordinates":[-43.1750708, -22.9617306]},"type":"text","infobox":{"schedule":"","text":" Av. Princesa Isabel, 362 - Copacabana Rio de Janeiro - RJ","homepage":""}}
{"scenarioId":11,"title":"Arena Copacabana Hotel","text":"","userId":27,"loc":{"type":"Point","accuracy":5.0,"coordinates":[-43.1817509, -22.9694007]},